[
  {
    "id": "tpq0862",
    "place_name": "林園大廈中庭",
    "address": "倉後街1之13號",
    "village": "留侯里",
    "remark": "全里",
    "seq": 862,
    "county": "TPQ",
    "town": "板橋區",
    "location": {
      "lat": 25.008856,
      "lng": 121.45536
    },
    "power": 1
  },
  {
    "id": "tpq0863",
    "place_name": "板橋國小",
    "address": "文化路一段23號",
    "village": "流芳里",
    "remark": "全里",
    "seq": 863,
    "county": "TPQ",
    "town": "板橋區",
    "location": {
      "lat": 25.0108477,
      "lng": 121.4582632
    },
    "power": 8
  },
  {
    "id": "tpq0864",
    "place_name": "板橋慈惠宮(太歲殿)",
    "address": "府中路81號",
    "village": "赤松里",
    "remark": "全里",
    "seq": 864,
    "county": "TPQ",
    "town": "板橋區",
    "location": {
      "lat": 25.009403,
      "lng": 121.4574301
    },
    "power": 1
  },
  {
    "id": "tpq0868",
    "place_name": "湳興第一市民活動中心",
    "address": "南雅西路一段64號",
    "village": "湳興里",
    "remark": "13,14,16,20,21",
    "seq": 868,
    "county": "TPQ",
    "town": "板橋區",
    "location": {
      "lat": 25.0051388,
      "lng": 121.4537298
    },
    "power": 1
  },
  {
    "id": "tpq0869",
    "place_name": "板橋清潔隊-後勤分隊",
    "address": "南雅西路一段154號",
    "village": "湳興里",
    "remark": "12,15,17-19,23-25",
    "seq": 869,
    "county": "TPQ",
    "town": "板橋區",
    "location": {
      "lat": 25.0075104,
      "lng": 121.4526386
    },
    "power": 2
  },
  {
    "id": "tpq0871",
    "place_name": "彬彬幼兒園",
    "address": "館前西路160巷2號",
    "village": "湳興里",
    "remark": "1-5,22",
    "seq": 871,
    "county": "TPQ",
    "town": "板橋區",
    "location": {
      "lat": 25.0088211,
      "lng": 121.4527979
    },
    "power": 1
  },
  {
    "id": "tpq0872",
    "place_name": "湳興市場二樓左側(新興市民活動中心",
    "address": "中興路63號2樓",
    "village": "新興里",
    "remark": "1-10",
    "seq": 872,
    "county": "TPQ",
    "town": "板橋區",
    "location": {
      "lat": 25.007033,
      "lng": 121.4552989
    },
    "power": 2
  },
  {
    "id": "tpq0874",
    "place_name": "上帝宮廟(原托兒所)",
    "address": "中正路80巷1弄7號",
    "village": "社後里",
    "remark": "1-3,5-7",
    "seq": 874,
    "county": "TPQ",
    "town": "板橋區",
    "location": {
      "lat": 25.0147099,
      "lng": 121.457149
    },
    "power": 1
  },
  {
    "id": "tpq0875",
    "place_name": "社後第一市民活動中心",
    "address": "大仁街33巷2號",
    "village": "社後里",
    "remark": "4,8-10,20,2123,24",
    "seq": 875,
    "county": "TPQ",
    "town": "板橋區",
    "location": {
      "lat": 25.017099,
      "lng": 121.456053
    },
    "power": 2
  },
  {
    "id": "tpq0877",
    "place_name": "國光公園活動中心",
    "address": "中正路375巷48號",
    "village": "社後里",
    "remark": "16-19,22,27",
    "seq": 877,
    "county": "TPQ",
    "town": "板橋區",
    "location": {
      "lat": 25.02027,
      "lng": 121.4536
    },
    "power": 1
  },
  {
    "id": "tpq0878",
    "place_name": "國光國小",
    "address": "中正路325巷30號",
    "village": "香社里",
    "remark": "1-7",
    "seq": 878,
    "county": "TPQ",
    "town": "板橋區",
    "location": {
      "lat": 25.0189665,
      "lng": 121.4529247
    },
    "power": 8
  },
  {
    "id": "tpq0883",
    "place_name": "板橋國中",
    "address": "中正路437號",
    "village": "中正里",
    "remark": "1-10",
    "seq": 883,
    "county": "TPQ",
    "town": "板橋區",
    "location": {
      "lat": 25.0239742,
      "lng": 121.454208
    },
    "power": 3
  },
  {
    "id": "tpq0889",
    "place_name": "自強基督教浸禮聖經會",
    "address": "大智街13號",
    "village": "自強里",
    "remark": "2,17-23",
    "seq": 889,
    "county": "TPQ",
    "town": "板橋區",
    "location": {
      "lat": 25.0148322,
      "lng": 121.4556064
    },
    "power": 1
  },
  {
    "id": "tpq0890",
    "place_name": "自立市民活動中心",
    "address": "大智街77號",
    "village": "自立里",
    "remark": "1-9",
    "seq": 890,
    "county": "TPQ",
    "town": "板橋區",
    "location": {
      "lat": 25.0154695,
      "lng": 121.4533312
    },
    "power": 2
  },
  {
    "id": "tpq0892",
    "place_name": "大觀書社（文昌祠）",
    "address": "西門街5號",
    "village": "光華里",
    "remark": "1-10",
    "seq": 892,
    "county": "TPQ",
    "town": "板橋區",
    "location": {
      "lat": 25.0114422,
      "lng": 121.4558606
    },
    "power": 1
  },
  {
    "id": "tpq0893",
    "place_name": "光華市民活動中心",
    "address": "光華街1號",
    "village": "光華里",
    "remark": "11-20",
    "seq": 893,
    "county": "TPQ",
    "town": "板橋區",
    "location": {
      "lat": 25.011142,
      "lng": 121.454036
    },
    "power": 1
  },
  {
    "id": "tpq0894",
    "place_name": "光榮市民活動中心",
    "address": "光華街52號",
    "village": "光榮里",
    "remark": "1-9",
    "seq": 894,
    "county": "TPQ",
    "town": "板橋區",
    "location": {
      "lat": 25.01313,
      "lng": 121.453807
    },
    "power": 2
  },
  {
    "id": "tpq0896",
    "place_name": "國光市民活動中心",
    "address": "國光路76號",
    "village": "國光里",
    "remark": "1-7",
    "seq": 896,
    "county": "TPQ",
    "town": "板橋區",
    "location": {
      "lat": 25.017718,
      "lng": 121.458363
    },
    "power": 3
  },
  {
    "id": "tpq0899",
    "place_name": "港尾市民活動中心",
    "address": "中正路336之1號",
    "village": "港尾里",
    "remark": "1-7",
    "seq": 899,
    "county": "TPQ",
    "town": "板橋區",
    "location": {
      "lat": 25.0348844,
      "lng": 121.4456547
    },
    "power": 2
  },
  {
    "id": "tpq0901",
    "place_name": "文德國小",
    "address": "英士路179號",
    "village": "新生里",
    "remark": "1-8",
    "seq": 901,
    "county": "TPQ",
    "town": "板橋區",
    "location": {
      "lat": 25.0233131,
      "lng": 121.4588092
    },
    "power": 11
  },
  {
    "id": "tpq0911",
    "place_name": "民權市民活動中心",
    "address": "民權路202巷9弄39號",
    "village": "民權里",
    "remark": "1-12",
    "seq": 911,
    "county": "TPQ",
    "town": "板橋區",
    "location": {
      "lat": 25.015625,
      "lng": 121.459329
    },
    "power": 1
  },
  {
    "id": "tpq0912",
    "place_name": "慈惠幼兒園",
    "address": "民權路202巷22號",
    "village": "民權里",
    "remark": "13-24",
    "seq": 912,
    "county": "TPQ",
    "town": "板橋區",
    "location": {
      "lat": 25.016651,
      "lng": 121.461078
    },
    "power": 1
  },
  {
    "id": "tpq0914",
    "place_name": "民安市民活動中心",
    "address": "民權路202巷7弄28號",
    "village": "民安里",
    "remark": "1-11",
    "seq": 914,
    "county": "TPQ",
    "town": "板橋區",
    "location": {
      "lat": 25.015027,
      "lng": 121.458971
    },
    "power": 1
  },
  {
    "id": "tpq0915",
    "place_name": "板橋和平堂教堂廣場",
    "address": "民權路202巷17弄70號",
    "village": "建國里",
    "remark": "4,9,13,17-2022,28,30,31",
    "seq": 915,
    "county": "TPQ",
    "town": "板橋區",
    "location": {
      "lat": 25.016475,
      "lng": 121.458192
    },
    "power": 1
  },
  {
    "id": "tpq0916",
    "place_name": "民宅",
    "address": "復興街27號",
    "village": "建國里",
    "remark": "7,8,10-12,14-16,23,27",
    "seq": 916,
    "county": "TPQ",
    "town": "板橋區",
    "location": {
      "lat": 25.0174242,
      "lng": 121.4580494
    },
    "power": 1
  },
  {
    "id": "tpq0917",
    "place_name": "私立和平幼兒園",
    "address": "建國街32號",
    "village": "建國里",
    "remark": "1-3,5,6,21,24-26,29",
    "seq": 917,
    "county": "TPQ",
    "town": "板橋區",
    "location": {
      "lat": 25.0169365,
      "lng": 121.4581067
    },
    "power": 1
  },
  {
    "id": "tpq0918",
    "place_name": "接源堂辦公室",
    "address": "光正街55號",
    "village": "漢生里",
    "remark": "1-7",
    "seq": 918,
    "county": "TPQ",
    "town": "板橋區",
    "location": {
      "lat": 25.0171851,
      "lng": 121.4624119
    },
    "power": 1
  },
  {
    "id": "tpq0919",
    "place_name": "接源堂廟前廣場",
    "address": "光正街52號",
    "village": "漢生里",
    "remark": "8-15",
    "seq": 919,
    "county": "TPQ",
    "town": "板橋區",
    "location": {
      "lat": 25.0176549,
      "lng": 121.4617098
    },
    "power": 1
  },
  {
    "id": "tpq0920",
    "place_name": "接源堂辦公處（新）",
    "address": "光正街44號",
    "village": "漢生里",
    "remark": "16-22",
    "seq": 920,
    "county": "TPQ",
    "town": "板橋區",
    "location": {
      "lat": 25.0176489,
      "lng": 121.46195
    },
    "power": 1
  },
  {
    "id": "tpq0921",
    "place_name": "公館社區活動中心",
    "address": "光正街57號",
    "village": "公舘里",
    "remark": "2,4-7,16,21",
    "seq": 921,
    "county": "TPQ",
    "town": "板橋區",
    "location": {
      "lat": 25.0171851,
      "lng": 121.4624119
    },
    "power": 2
  },
  {
    "id": "tpq0924",
    "place_name": "中山國中",
    "address": "文化路一段188巷56號",
    "village": "新民里",
    "remark": "1-9",
    "seq": 924,
    "county": "TPQ",
    "town": "板橋區",
    "location": {
      "lat": 25.018452,
      "lng": 121.4675654
    },
    "power": 6
  },
  {
    "id": "tpq0930",
    "place_name": "新埔國中",
    "address": "新海路181號",
    "village": "文德里",
    "remark": "1,2,8-12",
    "seq": 930,
    "county": "TPQ",
    "town": "板橋區",
    "location": {
      "lat": 25.0247941,
      "lng": 121.4597502
    },
    "power": 9
  },
  {
    "id": "tpq0932",
    "place_name": "致理技術學院（B12教室）",
    "address": "文化路一段313號",
    "village": "忠誠里",
    "remark": "1,2,4-8",
    "seq": 932,
    "county": "TPQ",
    "town": "板橋區",
    "location": {
      "lat": 25.0210015,
      "lng": 121.465198
    },
    "power": 2
  },
  {
    "id": "tpq0934",
    "place_name": "健華新城活動中心",
    "address": "文化路一段309號",
    "village": "忠誠里",
    "remark": "3",
    "seq": 934,
    "county": "TPQ",
    "town": "板橋區",
    "location": {
      "lat": 25.0190604,
      "lng": 121.4652166
    },
    "power": 1
  },
  {
    "id": "tpq0935",
    "place_name": "新埔國小",
    "address": "陽明街206號",
    "village": "陽明里",
    "remark": "1-10",
    "seq": 935,
    "county": "TPQ",
    "town": "板橋區",
    "location": {
      "lat": 25.0256511,
      "lng": 121.4625555
    },
    "power": 11
  },
  {
    "id": "tpq0940",
    "place_name": "介壽市民活動中心",
    "address": "民生路二段89號之5(民生陸橋下)",
    "village": "介壽里",
    "remark": "11-17",
    "seq": 940,
    "county": "TPQ",
    "town": "板橋區",
    "location": {
      "lat": 25.0154938,
      "lng": 121.4732801
    },
    "power": 1
  },
  {
    "id": "tpq0941",
    "place_name": "民宅",
    "address": "自由路26巷28號",
    "village": "新埔里",
    "remark": "1-6",
    "seq": 941,
    "county": "TPQ",
    "town": "板橋區",
    "location": {
      "lat": 25.022262,
      "lng": 121.466663
    },
    "power": 2
  },
  {
    "id": "tpq0943",
    "place_name": "華江市民活動中心",
    "address": "民生路二段56號之6(民生陸橋下）",
    "village": "華江里",
    "remark": "1-5,14,21-23",
    "seq": 943,
    "county": "TPQ",
    "town": "板橋區",
    "location": {
      "lat": 25.0154938,
      "lng": 121.4732801
    },
    "power": 1
  },
  {
    "id": "tpq0944",
    "place_name": "埤墘社區發展協會社區照顧關懷據點",
    "address": "莊敬路179號(中山公園內)",
    "village": "華江里",
    "remark": "6-13",
    "seq": 944,
    "county": "TPQ",
    "town": "板橋區",
    "location": {
      "lat": 25.022927,
      "lng": 121.471635
    },
    "power": 3
  },
  {
    "id": "tpq0947",
    "place_name": "江翠國中",
    "address": "松江街63號",
    "village": "江翠里",
    "remark": "1-8",
    "seq": 947,
    "county": "TPQ",
    "town": "板橋區",
    "location": {
      "lat": 25.0288652,
      "lng": 121.4684587
    },
    "power": 10
  },
  {
    "id": "tpq0953",
    "place_name": "江翠國小",
    "address": "文化路二段413號",
    "village": "溪頭里",
    "remark": "1-5,24",
    "seq": 953,
    "county": "TPQ",
    "town": "板橋區",
    "location": {
      "lat": 25.032323,
      "lng": 121.4741372
    },
    "power": 7
  },
  {
    "id": "tpq0954",
    "place_name": "溪頭公園(潮和社館)",
    "address": "溪頭街臨356之1號",
    "village": "溪頭里",
    "remark": "6,7,10,25",
    "seq": 954,
    "county": "TPQ",
    "town": "板橋區",
    "location": {
      "lat": 25.0316532,
      "lng": 121.463552
    },
    "power": 1
  },
  {
    "id": "tpq0961",
    "place_name": "民宅",
    "address": "長江路一段130號",
    "village": "宏翠里",
    "remark": "2,5-10,12",
    "seq": 961,
    "county": "TPQ",
    "town": "板橋區",
    "location": {
      "lat": 25.0298915,
      "lng": 121.460309
    },
    "power": 1
  },
  {
    "id": "tpq0962",
    "place_name": "民宅",
    "address": "長江路一段156巷9弄17號",
    "village": "宏翠里",
    "remark": "1,4,11,13-16",
    "seq": 962,
    "county": "TPQ",
    "town": "板橋區",
    "location": {
      "lat": 25.0304092,
      "lng": 121.4619292
    },
    "power": 1
  },
  {
    "id": "tpq0963",
    "place_name": "民宅(巨蛋東京花園社區中庭)",
    "address": "民生路三段315號",
    "village": "宏翠里",
    "remark": "3",
    "seq": 963,
    "county": "TPQ",
    "town": "板橋區",
    "location": {
      "lat": 25.0308763,
      "lng": 121.4635709
    },
    "power": 1
  },
  {
    "id": "tpq0964",
    "place_name": "新南宮",
    "address": "長江路一段106巷13弄32號",
    "village": "仁翠里",
    "remark": "1-3,10,13-16",
    "seq": 964,
    "county": "TPQ",
    "town": "板橋區",
    "location": {
      "lat": 25.0295711,
      "lng": 121.4612766
    },
    "power": 1
  },
  {
    "id": "tpq0965",
    "place_name": "民宅",
    "address": "四維路291巷2弄12號",
    "village": "仁翠里",
    "remark": "4-9,11,12",
    "seq": 965,
    "county": "TPQ",
    "town": "板橋區",
    "location": {
      "lat": 25.0285519,
      "lng": 121.462893
    },
    "power": 1
  },
  {
    "id": "tpq0973",
    "place_name": "北天宮",
    "address": "裕民街91號",
    "village": "吉翠里",
    "remark": "1-6",
    "seq": 973,
    "county": "TPQ",
    "town": "板橋區",
    "location": {
      "lat": 25.0279711,
      "lng": 121.4603683
    },
    "power": 1
  },
  {
    "id": "tpq0974",
    "place_name": "裕民大樓會議室",
    "address": "裕民街120號",
    "village": "吉翠里",
    "remark": "12-16",
    "seq": 974,
    "county": "TPQ",
    "town": "板橋區",
    "location": {
      "lat": 25.027652,
      "lng": 121.459122
    },
    "power": 1
  },
  {
    "id": "tpq0975",
    "place_name": "慈后宮活動中心",
    "address": "長江路一段106巷10號",
    "village": "吉翠里",
    "remark": "7-11",
    "seq": 975,
    "county": "TPQ",
    "town": "板橋區",
    "location": {
      "lat": 25.029121,
      "lng": 121.459747
    },
    "power": 1
  },
  {
    "id": "tpq0976",
    "place_name": "新海福德宮(管理委員會)",
    "address": "綠堤街38號",
    "village": "德翠里",
    "remark": "1-6,12-14",
    "seq": 976,
    "county": "TPQ",
    "town": "板橋區",
    "location": {
      "lat": 25.0221977,
      "lng": 121.4778687
    },
    "power": 2
  },
  {
    "id": "tpq0978",
    "place_name": "太陽村社區（會議室）",
    "address": "龍泉街90巷1號",
    "village": "德翠里",
    "remark": "7,19-22",
    "seq": 978,
    "county": "TPQ",
    "town": "板橋區",
    "location": {
      "lat": 25.02486,
      "lng": 121.45635
    },
    "power": 1
  },
  {
    "id": "tpq0979",
    "place_name": "大貴社區1樓交誼廳",
    "address": "龍泉街108巷138號",
    "village": "德翠里",
    "remark": "23-26",
    "seq": 979,
    "county": "TPQ",
    "town": "板橋區",
    "location": {
      "lat": 25.0241207,
      "lng": 121.4557217
    },
    "power": 1
  },
  {
    "id": "tpq0985",
    "place_name": "貴格會新埔教育館",
    "address": "民生路三段263巷2弄6號",
    "village": "滿翠里",
    "remark": "7-11,16,18",
    "seq": 985,
    "county": "TPQ",
    "town": "板橋區",
    "location": {
      "lat": 25.0296744,
      "lng": 121.4639921
    },
    "power": 1
  },
  {
    "id": "tpq0990",
    "place_name": "文聖國小",
    "address": "文聖街86號",
    "village": "松翠里",
    "remark": "1-9",
    "seq": 990,
    "county": "TPQ",
    "town": "板橋區",
    "location": {
      "lat": 25.0292015,
      "lng": 121.4776974
    },
    "power": 14
  },
  {
    "id": "tpq0999",
    "place_name": "莒光國小",
    "address": "莒光路163號",
    "village": "華翠里",
    "remark": "1-10",
    "seq": 999,
    "county": "TPQ",
    "town": "板橋區",
    "location": {
      "lat": 25.0250177,
      "lng": 121.4743397
    },
    "power": 7
  },
  {
    "id": "tpq1006",
    "place_name": "藝文中心",
    "address": "莊敬路62號",
    "village": "忠翠里",
    "remark": "20,22,23",
    "seq": 1006,
    "county": "TPQ",
    "town": "板橋區",
    "location": {
      "lat": 25.0261073,
      "lng": 121.4723354
    },
    "power": 2
  },
  {
    "id": "tpq1012",
    "place_name": "文翠市民活動中心",
    "address": "民治街36之2號",
    "village": "文翠里",
    "remark": "10-17",
    "seq": 1012,
    "county": "TPQ",
    "town": "板橋區",
    "location": {
      "lat": 25.0339479,
      "lng": 121.478076
    },
    "power": 1
  },
  {
    "id": "tpq1015",
    "place_name": "青翠柏翠嵐翠市民活動中心",
    "address": "文化路二段654號之11",
    "village": "青翠里",
    "remark": "1-8",
    "seq": 1015,
    "county": "TPQ",
    "town": "板橋區",
    "location": {
      "lat": 25.0355632,
      "lng": 121.4786264
    },
    "power": 2
  },
  {
    "id": "tpq1020",
    "place_name": "福翠市民活動中心",
    "address": "萬板路812之1號",
    "village": "福翠里",
    "remark": "全里",
    "seq": 1020,
    "county": "TPQ",
    "town": "板橋區",
    "location": {
      "lat": 25.0239167,
      "lng": 121.4761206
    },
    "power": 1
  },
  {
    "id": "tpq1021",
    "place_name": "港嘴地區活動中心",
    "address": "縣民大道三段245號之1",
    "village": "港嘴里",
    "remark": "1-7",
    "seq": 1021,
    "county": "TPQ",
    "town": "板橋區",
    "location": {
      "lat": 25.0265758,
      "lng": 121.4808878
    },
    "power": 5
  },
  {
    "id": "tpq1025",
    "place_name": "埤墘地區五里聯合活動中心",
    "address": "縣民大道三段33號之1",
    "village": "埤墘里",
    "remark": "1-5,8",
    "seq": 1025,
    "county": "TPQ",
    "town": "板橋區",
    "location": {
      "lat": 25.0214154,
      "lng": 121.4738745
    },
    "power": 2
  },
  {
    "id": "tpq1027",
    "place_name": "莊敬公園活動中心",
    "address": "民生路二段120號",
    "village": "莊敬里",
    "remark": "1-7",
    "seq": 1027,
    "county": "TPQ",
    "town": "板橋區",
    "location": {
      "lat": 25.0196868,
      "lng": 121.4708615
    },
    "power": 1
  },
  {
    "id": "tpq1028",
    "place_name": "民宅",
    "address": "縣民大道三段33巷9弄7號",
    "village": "莊敬里",
    "remark": "8-14",
    "seq": 1028,
    "county": "TPQ",
    "town": "板橋區",
    "location": {
      "lat": 25.0209227,
      "lng": 121.4733012
    },
    "power": 1
  },
  {
    "id": "tpq1029",
    "place_name": "永安公園活動中心",
    "address": "雙十路一段25號",
    "village": "永安里",
    "remark": "1-8",
    "seq": 1029,
    "county": "TPQ",
    "town": "板橋區",
    "location": {
      "lat": 25.0244138,
      "lng": 121.477489
    },
    "power": 2
  },
  {
    "id": "tpq1031",
    "place_name": "民宅(車庫)",
    "address": "翠華街6巷86號",
    "village": "振興里",
    "remark": "4-7,12,15,16",
    "seq": 1031,
    "county": "TPQ",
    "town": "板橋區",
    "location": {
      "lat": 25.024999,
      "lng": 121.4812699
    },
    "power": 1
  },
  {
    "id": "tpq1032",
    "place_name": "坡仔公廟前老人休閒中心",
    "address": "中山路二段505巷56號邊",
    "village": "振興里",
    "remark": "1,3,10,13,1417",
    "seq": 1032,
    "county": "TPQ",
    "town": "板橋區",
    "location": {
      "lat": 25.015553,
      "lng": 121.473789
    },
    "power": 1
  },
  {
    "id": "tpq1034",
    "place_name": "北天廟",
    "address": "萬安街124巷4號",
    "village": "振義里",
    "remark": "5-8,11,15,17",
    "seq": 1034,
    "county": "TPQ",
    "town": "板橋區",
    "location": {
      "lat": 25.0225129,
      "lng": 121.484894
    },
    "power": 1
  },
  {
    "id": "tpq1035",
    "place_name": "板橋逢元宮",
    "address": "中山路二段565巷29號",
    "village": "振義里",
    "remark": "2,3,4,9,10,14,16",
    "seq": 1035,
    "county": "TPQ",
    "town": "板橋區",
    "location": {
      "lat": 25.0227314,
      "lng": 121.4838593
    },
    "power": 1
  },
  {
    "id": "tpq1036",
    "place_name": "紅雲府",
    "address": "翠華街12巷1號",
    "village": "振義里",
    "remark": "1,12,13",
    "seq": 1036,
    "county": "TPQ",
    "town": "板橋區",
    "location": {
      "lat": 25.0245564,
      "lng": 121.4827769
    },
    "power": 1
  },
  {
    "id": "tpq1037",
    "place_name": "真武廟自強樓右側（廟前空地）",
    "address": "光復街192巷11號",
    "village": "光復里",
    "remark": "1-14",
    "seq": 1037,
    "county": "TPQ",
    "town": "板橋區",
    "location": {
      "lat": 25.0201072,
      "lng": 121.4860001
    },
    "power": 2
  },
  {
    "id": "tpq1039",
    "place_name": "埔墘市民活動中心",
    "address": "光復街2號",
    "village": "埔墘里",
    "remark": "1-10,16,17",
    "seq": 1039,
    "county": "TPQ",
    "town": "板橋區",
    "location": {
      "lat": 25.0193033,
      "lng": 121.4811127
    },
    "power": 1
  },
  {
    "id": "tpq1040",
    "place_name": "中山首府後側門",
    "address": "中山路二段326號",
    "village": "埔墘里",
    "remark": "11-15",
    "seq": 1040,
    "county": "TPQ",
    "town": "板橋區",
    "location": {
      "lat": 25.019616,
      "lng": 121.4811207
    },
    "power": 1
  },
  {
    "id": "tpq1041",
    "place_name": "光仁中學（國三愛）",
    "address": "中山路二段255巷18號",
    "village": "埔墘里",
    "remark": "18,19(含20鄰中山路二段40至411號單號)",
    "seq": 1041,
    "county": "TPQ",
    "town": "板橋區",
    "location": {
      "lat": 25.0181135,
      "lng": 121.4767479
    },
    "power": 3
  },
  {
    "id": "tpq1042",
    "place_name": "台北慈德宮",
    "address": "中山路二段443巷30號",
    "village": "埔墘里",
    "remark": "20-23",
    "seq": 1042,
    "county": "TPQ",
    "town": "板橋區",
    "location": {
      "lat": 25.0210583,
      "lng": 121.4811463
    },
    "power": 1
  },
  {
    "id": "tpq1043",
    "place_name": "光復國中",
    "address": "光環路一段7號",
    "village": "富貴里",
    "remark": "1-5",
    "seq": 1043,
    "county": "TPQ",
    "town": "板橋區",
    "location": {
      "lat": 25.0165515,
      "lng": 121.4821605
    },
    "power": 6
  },
  {
    "id": "tpq1047",
    "place_name": "板橋區體育館(民生分館)",
    "address": "民生路一段30之1號2樓",
    "village": "福壽里",
    "remark": "1-6",
    "seq": 1047,
    "county": "TPQ",
    "town": "板橋區",
    "location": {
      "lat": 25.0133319,
      "lng": 121.475955
    },
    "power": 1
  },
  {
    "id": "tpq1048",
    "place_name": "福壽市民活動中心",
    "address": "三民路二段居仁巷2弄50號",
    "village": "福壽里",
    "remark": "7-16",
    "seq": 1048,
    "county": "TPQ",
    "town": "板橋區",
    "location": {
      "lat": 25.0132839,
      "lng": 121.4793961
    },
    "power": 1
  },
  {
    "id": "tpq1051",
    "place_name": "海山高中（忠孝樓70教室）",
    "address": "漢生東路215號",
    "village": "海山里",
    "remark": "1-5",
    "seq": 1051,
    "county": "TPQ",
    "town": "板橋區",
    "location": {
      "lat": 25.0095167,
      "lng": 121.4719268
    },
    "power": 4
  },
  {
    "id": "tpq1055",
    "place_name": "正隆廣場",
    "address": "民生路一段33號",
    "village": "海山里",
    "remark": "15-23",
    "seq": 1055,
    "county": "TPQ",
    "town": "板橋區",
    "location": {
      "lat": 25.0120329,
      "lng": 121.475698
    },
    "power": 1
  },
  {
    "id": "tpq1056",
    "place_name": "埔墘第二市民活動中心",
    "address": "中山路二段250巷1號",
    "village": "九如里",
    "remark": "1-6,14-16",
    "seq": 1056,
    "county": "TPQ",
    "town": "板橋區",
    "location": {
      "lat": 25.0028459,
      "lng": 121.497464
    },
    "power": 1
  },
  {
    "id": "tpq1057",
    "place_name": "埔墘福德宮(康樂台)",
    "address": "中山路二段250巷1號(對面)",
    "village": "九如里",
    "remark": "7-13",
    "seq": 1057,
    "county": "TPQ",
    "town": "板橋區",
    "location": {
      "lat": 25.0028459,
      "lng": 121.497464
    },
    "power": 1
  },
  {
    "id": "tpq1058",
    "place_name": "民宅",
    "address": "三民路二段正隆巷12弄23號",
    "village": "正泰里",
    "remark": "1-5,14-16",
    "seq": 1058,
    "county": "TPQ",
    "town": "板橋區",
    "location": {
      "lat": 25.0137002,
      "lng": 121.4774277
    },
    "power": 1
  },
  {
    "id": "tpq1059",
    "place_name": "民宅",
    "address": "三民路二段正泰3巷23號",
    "village": "正泰里",
    "remark": "6-13",
    "seq": 1059,
    "county": "TPQ",
    "town": "板橋區",
    "location": {
      "lat": 25.0140096,
      "lng": 121.4778127
    },
    "power": 1
  },
  {
    "id": "tpq1060",
    "place_name": "埔墘國小",
    "address": "永豐街42之8號",
    "village": "玉光里",
    "remark": "1-6",
    "seq": 1060,
    "county": "TPQ",
    "town": "板橋區",
    "location": {
      "lat": 25.0181471,
      "lng": 121.4741019
    },
    "power": 4
  },
  {
    "id": "tpq1061",
    "place_name": "玉光市民活動中心",
    "address": "民生路二段臨56號之3",
    "village": "玉光里",
    "remark": "7-13",
    "seq": 1061,
    "county": "TPQ",
    "town": "板橋區",
    "location": {
      "lat": 25.0193783,
      "lng": 121.4708178
    },
    "power": 2
  },
  {
    "id": "tpq1065",
    "place_name": "永豐公園活動中心",
    "address": "永豐街124號",
    "village": "雙玉里",
    "remark": "1-10",
    "seq": 1065,
    "county": "TPQ",
    "town": "板橋區",
    "location": {
      "lat": 25.0210838,
      "lng": 121.477063
    },
    "power": 2
  },
  {
    "id": "tpq1070",
    "place_name": "海山國小",
    "address": "漢生東路280號",
    "village": "深丘里",
    "remark": "1-4",
    "seq": 1070,
    "county": "TPQ",
    "town": "板橋區",
    "location": {
      "lat": 25.0094961,
      "lng": 121.4708924
    },
    "power": 7
  },
  {
    "id": "tpq1074",
    "place_name": "久揚天廈(會議室)",
    "address": "中山路一段293之1號",
    "village": "香丘里",
    "remark": "1-5",
    "seq": 1074,
    "county": "TPQ",
    "town": "板橋區",
    "location": {
      "lat": 25.014615,
      "lng": 121.470498
    },
    "power": 3
  },
  {
    "id": "tpq1077",
    "place_name": "西安市民活動中心",
    "address": "民生路二段89之1號",
    "village": "西安里",
    "remark": "1-7",
    "seq": 1077,
    "county": "TPQ",
    "town": "板橋區",
    "location": {
      "lat": 25.017439,
      "lng": 121.471433
    },
    "power": 2
  },
  {
    "id": "tpq1079",
    "place_name": "民生公園活動中心",
    "address": "民生路一段30號",
    "village": "東丘里",
    "remark": "1-6",
    "seq": 1079,
    "county": "TPQ",
    "town": "板橋區",
    "location": {
      "lat": 25.0133319,
      "lng": 121.475955
    },
    "power": 1
  },
  {
    "id": "tpq1080",
    "place_name": "板橋區體育館(民生分館)",
    "address": "民生路一段30之1號",
    "village": "東丘里",
    "remark": "7-12",
    "seq": 1080,
    "county": "TPQ",
    "town": "板橋區",
    "location": {
      "lat": 25.0133319,
      "lng": 121.475955
    },
    "power": 2
  },
  {
    "id": "tpq1082",
    "place_name": "民宅(義橋宮)",
    "address": "板新路74號",
    "village": "民生里",
    "remark": "1-5,12",
    "seq": 1082,
    "county": "TPQ",
    "town": "板橋區",
    "location": {
      "lat": 25.0143146,
      "lng": 121.4730232
    },
    "power": 1
  },
  {
    "id": "tpq1083",
    "place_name": "民宅(聖仁宮)",
    "address": "民生路一段115號",
    "village": "民生里",
    "remark": "6-11,13,14",
    "seq": 1083,
    "county": "TPQ",
    "town": "板橋區",
    "location": {
      "lat": 25.0145638,
      "lng": 121.473972
    },
    "power": 1
  },
  {
    "id": "tpq1084",
    "place_name": "新北市私立祥寶老人養護中心",
    "address": "中山路一段206巷6號",
    "village": "長安里",
    "remark": "5-9,16",
    "seq": 1084,
    "county": "TPQ",
    "town": "板橋區",
    "location": {
      "lat": 25.012776,
      "lng": 121.470229
    },
    "power": 1
  },
  {
    "id": "tpq1085",
    "place_name": "長安里資源回收站",
    "address": "長安街331巷58號旁",
    "village": "長安里",
    "remark": "4,10-15",
    "seq": 1085,
    "county": "TPQ",
    "town": "板橋區",
    "location": {
      "lat": 25.0132729,
      "lng": 121.473561
    },
    "power": 1
  },
  {
    "id": "tpq1086",
    "place_name": "新站巴黎社區",
    "address": "板新路37至69號",
    "village": "長安里",
    "remark": "1-3,17-19",
    "seq": 1086,
    "county": "TPQ",
    "town": "板橋區",
    "location": {
      "lat": 25.0126184,
      "lng": 121.4753299
    },
    "power": 1
  },
  {
    "id": "tpq1087",
    "place_name": "東安里臨時活動中心",
    "address": "長安街331巷5弄12號旁",
    "village": "東安里",
    "remark": "1-5,10",
    "seq": 1087,
    "county": "TPQ",
    "town": "板橋區",
    "location": {
      "lat": 25.0124679,
      "lng": 121.474315
    },
    "power": 2
  },
  {
    "id": "tpq1089",
    "place_name": "金吉第大廈會議室",
    "address": "中山路一段50巷40號",
    "village": "福丘里",
    "remark": "1-7",
    "seq": 1089,
    "county": "TPQ",
    "town": "板橋區",
    "location": {
      "lat": 25.0086649,
      "lng": 121.460633
    },
    "power": 1
  },
  {
    "id": "tpq1090",
    "place_name": "新北市稅捐稽徵處",
    "address": "中山路一段143號",
    "village": "福丘里",
    "remark": "8-14",
    "seq": 1090,
    "county": "TPQ",
    "town": "板橋區",
    "location": {
      "lat": 25.0115767,
      "lng": 121.46419
    },
    "power": 1
  },
  {
    "id": "tpq1091",
    "place_name": "實踐國小",
    "address": "實踐路93巷51號",
    "village": "福祿里",
    "remark": "1-10",
    "seq": 1091,
    "county": "TPQ",
    "town": "板橋區",
    "location": {
      "lat": 25.0049815,
      "lng": 121.4663974
    },
    "power": 5
  },
  {
    "id": "tpq1098",
    "place_name": "後埔國小",
    "address": "重慶路157號",
    "village": "後埔里",
    "remark": "1-7",
    "seq": 1098,
    "county": "TPQ",
    "town": "板橋區",
    "location": {
      "lat": 25.0033516,
      "lng": 121.4626692
    },
    "power": 3
  },
  {
    "id": "tpq1101",
    "place_name": "福泰社區活動中心",
    "address": "忠孝路忠義巷9弄1之1號",
    "village": "福德里",
    "remark": "8-15",
    "seq": 1101,
    "county": "TPQ",
    "town": "板橋區",
    "location": {
      "lat": 25.0046669,
      "lng": 121.4650723
    },
    "power": 1
  },
  {
    "id": "tpq1103",
    "place_name": "忠孝國中",
    "address": "成都街30號",
    "village": "景星里",
    "remark": "1-13",
    "seq": 1103,
    "county": "TPQ",
    "town": "板橋區",
    "location": {
      "lat": 25.0048364,
      "lng": 121.4616477
    },
    "power": 6
  },
  {
    "id": "tpq1107",
    "place_name": "鄉雲市民活動中心",
    "address": "大華街168號",
    "village": "鄉雲里",
    "remark": "1-8,11-13,21",
    "seq": 1107,
    "county": "TPQ",
    "town": "板橋區",
    "location": {
      "lat": 25.0036921,
      "lng": 121.4592456
    },
    "power": 1
  },
  {
    "id": "tpq1108",
    "place_name": "宏法禪寺",
    "address": "大明街15巷15號",
    "village": "鄉雲里",
    "remark": "9,10,14-20",
    "seq": 1108,
    "county": "TPQ",
    "town": "板橋區",
    "location": {
      "lat": 25.0021828,
      "lng": 121.4585768
    },
    "power": 1
  },
  {
    "id": "tpq1109",
    "place_name": "和平公園活動中心",
    "address": "重慶路355號",
    "village": "廣德里",
    "remark": "2,4-6,18,23,24",
    "seq": 1109,
    "county": "TPQ",
    "town": "板橋區",
    "location": {
      "lat": 24.9977051,
      "lng": 121.4642959
    },
    "power": 1
  },
  {
    "id": "tpq1110",
    "place_name": "重慶公園活動中心",
    "address": "重慶路245巷32弄18號",
    "village": "廣德里",
    "remark": "7-11,25",
    "seq": 1110,
    "county": "TPQ",
    "town": "板橋區",
    "location": {
      "lat": 25.0001428,
      "lng": 121.4653127
    },
    "power": 2
  },
  {
    "id": "tpq1112",
    "place_name": "重慶國中",
    "address": "國慶路120號",
    "village": "廣德里",
    "remark": "12-17",
    "seq": 1112,
    "county": "TPQ",
    "town": "板橋區",
    "location": {
      "lat": 24.9981868,
      "lng": 121.4631303
    },
    "power": 11
  },
  {
    "id": "tpq1114",
    "place_name": "大豐市民活動中心",
    "address": "忠孝路48巷5弄4號",
    "village": "大豐里",
    "remark": "2-5,10,17,18",
    "seq": 1114,
    "county": "TPQ",
    "town": "板橋區",
    "location": {
      "lat": 25.0005411,
      "lng": 121.4616186
    },
    "power": 1
  },
  {
    "id": "tpq1124",
    "place_name": "重慶國小",
    "address": "廣和街31號",
    "village": "和平里",
    "remark": "1-10",
    "seq": 1124,
    "county": "TPQ",
    "town": "板橋區",
    "location": {
      "lat": 24.9944625,
      "lng": 121.4624227
    },
    "power": 7
  },
  {
    "id": "tpq1131",
    "place_name": "南雅公園活動中心",
    "address": "南雅南路二段1之1號",
    "village": "華興里",
    "remark": "1-12",
    "seq": 1131,
    "county": "TPQ",
    "town": "板橋區",
    "location": {
      "lat": 25.0033969,
      "lng": 121.454693
    },
    "power": 2
  },
  {
    "id": "tpq1133",
    "place_name": "華貴市民活動中心",
    "address": "大明街20巷19弄13號",
    "village": "華貴里",
    "remark": "1-10",
    "seq": 1133,
    "county": "TPQ",
    "town": "板橋區",
    "location": {
      "lat": 25.003089,
      "lng": 121.457969
    },
    "power": 2
  },
  {
    "id": "tpq1137",
    "place_name": "信義國小",
    "address": "四川路二段245巷60號",
    "village": "華德里",
    "remark": "1-9",
    "seq": 1137,
    "county": "TPQ",
    "town": "板橋區",
    "location": {
      "lat": 24.9917854,
      "lng": 121.4526816
    },
    "power": 4
  },
  {
    "id": "tpq1141",
    "place_name": "聖成宮活動中心",
    "address": "南雅南路二段4巷2號",
    "village": "華東里",
    "remark": "1-5,19",
    "seq": 1141,
    "county": "TPQ",
    "town": "板橋區",
    "location": {
      "lat": 24.99963,
      "lng": 121.453285
    },
    "power": 1
  },
  {
    "id": "tpq1142",
    "place_name": "亞東技術學院（誠勤大樓1F羽球場）",
    "address": "四川路二段58號",
    "village": "華東里",
    "remark": "6-10,18,20-24,29-32(含28鄰南雅南路二段27至37號單號)",
    "seq": 1142,
    "county": "TPQ",
    "town": "板橋區",
    "location": {
      "lat": 24.995194,
      "lng": 121.4531189
    },
    "power": 1
  },
  {
    "id": "tpq1143",
    "place_name": "華東市民活動中心",
    "address": "四川路二段130巷32號",
    "village": "華東里",
    "remark": "11-17,25-28",
    "seq": 1143,
    "county": "TPQ",
    "town": "板橋區",
    "location": {
      "lat": 24.9944802,
      "lng": 121.4496555
    },
    "power": 1
  },
  {
    "id": "tpq1144",
    "place_name": "廣厚宮",
    "address": "信義路164之2號",
    "village": "信義里",
    "remark": "1-7",
    "seq": 1144,
    "county": "TPQ",
    "town": "板橋區",
    "location": {
      "lat": 24.9912799,
      "lng": 121.45922
    },
    "power": 1
  },
  {
    "id": "tpq1145",
    "place_name": "信義公園活動中心",
    "address": "信義路150巷43之1號",
    "village": "信義里",
    "remark": "8-14",
    "seq": 1145,
    "county": "TPQ",
    "town": "板橋區",
    "location": {
      "lat": 24.9916865,
      "lng": 121.4574715
    },
    "power": 2
  },
  {
    "id": "tpq1147",
    "place_name": "大觀國小",
    "address": "大觀路一段30號",
    "village": "浮洲里",
    "remark": "1-9",
    "seq": 1147,
    "county": "TPQ",
    "town": "板橋區",
    "location": {
      "lat": 25.0085816,
      "lng": 121.4494217
    },
    "power": 3
  },
  {
    "id": "tpq1150",
    "place_name": "台大幼兒園",
    "address": "僑中一街80巷7弄1號",
    "village": "華中里",
    "remark": "1-5,8,9",
    "seq": 1150,
    "county": "TPQ",
    "town": "板橋區",
    "location": {
      "lat": 25.0127479,
      "lng": 121.447659
    },
    "power": 1
  },
  {
    "id": "tpq1151",
    "place_name": "天藍幼兒園",
    "address": "僑中一街124巷3弄16號",
    "village": "華中里",
    "remark": "6,7,10-14",
    "seq": 1151,
    "county": "TPQ",
    "town": "板橋區",
    "location": {
      "lat": 25.012642,
      "lng": 121.4453059
    },
    "power": 1
  },
  {
    "id": "tpq1152",
    "place_name": "華中市民活動中心",
    "address": "僑中一街102巷7弄1號",
    "village": "華中里",
    "remark": "15-20",
    "seq": 1152,
    "county": "TPQ",
    "town": "板橋區",
    "location": {
      "lat": 25.0128548,
      "lng": 121.446756
    },
    "power": 1
  },
  {
    "id": "tpq1153",
    "place_name": "民宅",
    "address": "僑中二街102巷44號",
    "village": "僑中里",
    "remark": "1-4",
    "seq": 1153,
    "county": "TPQ",
    "town": "板橋區",
    "location": {
      "lat": 25.0086777,
      "lng": 121.4445456
    },
    "power": 1
  },
  {
    "id": "tpq1154",
    "place_name": "民宅",
    "address": "僑中二街106巷4號",
    "village": "僑中里",
    "remark": "5-10",
    "seq": 1154,
    "county": "TPQ",
    "town": "板橋區",
    "location": {
      "lat": 25.0076558,
      "lng": 121.4456699
    },
    "power": 1
  },
  {
    "id": "tpq1155",
    "place_name": "民宅(浮洲車站對面)",
    "address": "僑中二街152號",
    "village": "僑中里",
    "remark": "11-16",
    "seq": 1155,
    "county": "TPQ",
    "town": "板橋區",
    "location": {
      "lat": 25.0044419,
      "lng": 121.4448518
    },
    "power": 1
  },
  {
    "id": "tpq1156",
    "place_name": "大觀國中",
    "address": "僑中一街1號",
    "village": "大觀里",
    "remark": "1-7",
    "seq": 1156,
    "county": "TPQ",
    "town": "板橋區",
    "location": {
      "lat": 25.0111269,
      "lng": 121.4489382
    },
    "power": 2
  },
  {
    "id": "tpq1158",
    "place_name": "土地公廟前舊活動中心",
    "address": "大觀路一段38巷156弄39號",
    "village": "歡園里",
    "remark": "全里",
    "seq": 1158,
    "county": "TPQ",
    "town": "板橋區",
    "location": {
      "lat": 25.0059319,
      "lng": 121.442582
    },
    "power": 1
  },
  {
    "id": "tpq1159",
    "place_name": "中山國小",
    "address": "大觀路二段59巷31號",
    "village": "中山里",
    "remark": "1-7",
    "seq": 1159,
    "county": "TPQ",
    "town": "板橋區",
    "location": {
      "lat": 25.002234,
      "lng": 121.4477191
    },
    "power": 6
  },
  {
    "id": "tpq1162",
    "place_name": "板橋榮家大門口左側",
    "address": "大觀路二段32號",
    "village": "復興里",
    "remark": "2-4",
    "seq": 1162,
    "county": "TPQ",
    "town": "板橋區",
    "location": {
      "lat": 25.0012464,
      "lng": 121.4456657
    },
    "power": 2
  },
  {
    "id": "tpq1167",
    "place_name": "三抱竹聯合廣場(左側)",
    "address": "大觀路二段431之1號",
    "village": "福安里",
    "remark": "1-5,14",
    "seq": 1167,
    "county": "TPQ",
    "town": "板橋區",
    "location": {
      "lat": 24.9982668,
      "lng": 121.4410081
    },
    "power": 2
  },
  {
    "id": "tpq1169",
    "place_name": "歡仔園活動中心",
    "address": "大觀路一段38巷1之5號",
    "village": "聚安里",
    "remark": "1-11",
    "seq": 1169,
    "county": "TPQ",
    "town": "板橋區",
    "location": {
      "lat": 25.004492,
      "lng": 121.442817
    },
    "power": 4
  },
  {
    "id": "tpq1173",
    "place_name": "聚安宮",
    "address": "大觀路二段162號",
    "village": "龍安里",
    "remark": "1-8",
    "seq": 1173,
    "county": "TPQ",
    "town": "板橋區",
    "location": {
      "lat": 24.9987586,
      "lng": 121.4414529
    },
    "power": 2
  },
  {
    "id": "tpq1175",
    "place_name": "沙崙國小",
    "address": "篤行路二段132號",
    "village": "崑崙里",
    "remark": "1-8",
    "seq": 1175,
    "county": "TPQ",
    "town": "板橋區",
    "location": {
      "lat": 24.9897464,
      "lng": 121.4305412
    },
    "power": 7
  },
  {
    "id": "tpq1178",
    "place_name": "崑崙公園活動中心",
    "address": "大觀路三段240號",
    "village": "崑崙里",
    "remark": "22-28",
    "seq": 1178,
    "county": "TPQ",
    "town": "板橋區",
    "location": {
      "lat": 24.993106,
      "lng": 121.4294477
    },
    "power": 2
  },
  {
    "id": "tpq1183",
    "place_name": "溪洲國小",
    "address": "金門街289號",
    "village": "溪洲里",
    "remark": "1-9",
    "seq": 1183,
    "county": "TPQ",
    "town": "板橋區",
    "location": {
      "lat": 24.9873416,
      "lng": 121.4308822
    },
    "power": 10
  },
  {
    "id": "tpq1192",
    "place_name": "北極宮長壽會館",
    "address": "溪崑二街73巷1號",
    "village": "溪北里",
    "remark": "1-8",
    "seq": 1192,
    "county": "TPQ",
    "town": "板橋區",
    "location": {
      "lat": 24.990269,
      "lng": 121.428422
    },
    "power": 1
  },
  {
    "id": "tpq1195",
    "place_name": "溪崑社區活動中心",
    "address": "金門街253巷10弄7號",
    "village": "堂春里",
    "remark": "11-19",
    "seq": 1195,
    "county": "TPQ",
    "town": "板橋區",
    "location": {
      "lat": 24.9882893,
      "lng": 121.4330954
    },
    "power": 1
  }
]