[
  {
    "id": "tpe0001",
    "place_name": "中正高中護理教室",
    "address": "文林北路77號",
    "village": "建民里1-7",
    "indigenous_village": "建民里全里",
    "phone": "28234811轉510",
    "seq": 1,
    "county": "TPE",
    "town": "北投區",
    "location": {
      "lat": 25.1044123,
      "lng": 121.516608
    }
  },
  {
    "id": "tpe0002",
    "place_name": "中正高中活動中心介壽廳",
    "address": "文林北路77號",
    "village": "建民里8-14",
    "indigenous_village": "",
    "phone": "28234811轉510",
    "seq": 2,
    "county": "TPE",
    "town": "北投區",
    "location": {
      "lat": 25.1044123,
      "lng": 121.516608
    }
  },
  {
    "id": "tpe0003",
    "place_name": "中正高中活動中心中正廳",
    "address": "文林北路77號",
    "village": "建民里15-20",
    "indigenous_village": "",
    "phone": "28234811轉510",
    "seq": 3,
    "county": "TPE",
    "town": "北投區",
    "location": {
      "lat": 25.1044123,
      "lng": 121.516608
    }
  },
  {
    "id": "tpe0004",
    "place_name": "明德國中801教室",
    "address": "明德路50號",
    "village": "文林里1-7",
    "indigenous_village": "文林里全里",
    "phone": "28232539轉604",
    "seq": 4,
    "county": "TPE",
    "town": "北投區",
    "location": {
      "lat": 25.1078221,
      "lng": 121.5184451
    }
  },
  {
    "id": "tpe0005",
    "place_name": "明德國中803教室",
    "address": "明德路50號",
    "village": "文林里8-14",
    "indigenous_village": "",
    "phone": "28232539轉604",
    "seq": 5,
    "county": "TPE",
    "town": "北投區",
    "location": {
      "lat": 25.1078221,
      "lng": 121.5184451
    }
  },
  {
    "id": "tpe0006",
    "place_name": "明德國中804教室",
    "address": "明德路50號",
    "village": "文林里15-20",
    "indigenous_village": "",
    "phone": "28232539轉604",
    "seq": 6,
    "county": "TPE",
    "town": "北投區",
    "location": {
      "lat": 25.1078221,
      "lng": 121.5184451
    }
  },
  {
    "id": "tpe0007",
    "place_name": "明德國中806教室",
    "address": "明德路50號",
    "village": "石牌里1-6",
    "indigenous_village": "石牌里全里",
    "phone": "28232539轉604",
    "seq": 7,
    "county": "TPE",
    "town": "北投區",
    "location": {
      "lat": 25.1078221,
      "lng": 121.5184451
    }
  },
  {
    "id": "tpe0008",
    "place_name": "明德國中英語領域教室",
    "address": "明德路50號",
    "village": "石牌里7-9,11,12",
    "indigenous_village": "",
    "phone": "28232539轉604",
    "seq": 8,
    "county": "TPE",
    "town": "北投區",
    "location": {
      "lat": 25.1078221,
      "lng": 121.5184451
    }
  },
  {
    "id": "tpe0009",
    "place_name": "明德國中國文領域教室",
    "address": "明德路50號",
    "village": "石牌里10,13-16",
    "indigenous_village": "",
    "phone": "28232539轉604",
    "seq": 9,
    "county": "TPE",
    "town": "北投區",
    "location": {
      "lat": 25.1078221,
      "lng": 121.5184451
    }
  },
  {
    "id": "tpe0010",
    "place_name": "士林福庭公寓大廈閱覽室",
    "address": "石牌路1段58巷11號",
    "village": "福興里1,2,5,10,19",
    "indigenous_village": "",
    "phone": "28231898",
    "seq": 10,
    "county": "TPE",
    "town": "北投區",
    "location": {
      "lat": 25.112927,
      "lng": 121.5115777
    }
  },
  {
    "id": "tpe0011",
    "place_name": "福星宮活動中心",
    "address": "自強街5巷8號",
    "village": "福興里3,6,8,9,11,12",
    "indigenous_village": "",
    "phone": "28235574",
    "seq": 11,
    "county": "TPE",
    "town": "北投區",
    "location": {
      "lat": 25.1105564,
      "lng": 121.5120348
    }
  },
  {
    "id": "tpe0012",
    "place_name": "汾陽宮",
    "address": "石牌路1段58巷28弄6號",
    "village": "福興里4,7,13,20",
    "indigenous_village": "福興里全里",
    "phone": "28203001",
    "seq": 12,
    "county": "TPE",
    "town": "北投區",
    "location": {
      "lat": 25.1123622,
      "lng": 121.5120115
    }
  },
  {
    "id": "tpe0013",
    "place_name": "台灣女性藝術協會",
    "address": "自強街61巷6號",
    "village": "福興里14-18",
    "indigenous_village": "",
    "phone": "28218827",
    "seq": 13,
    "county": "TPE",
    "town": "北投區",
    "location": {
      "lat": 25.1107677,
      "lng": 121.513833
    }
  },
  {
    "id": "tpe0014",
    "place_name": "石牌國中七年1班教室",
    "address": "石牌路1段139號",
    "village": "榮光里1-6",
    "indigenous_village": "榮光里全里",
    "phone": "28224682轉253",
    "seq": 14,
    "county": "TPE",
    "town": "北投區",
    "location": {
      "lat": 25.114982,
      "lng": 121.5141732
    }
  },
  {
    "id": "tpe0015",
    "place_name": "石牌國中七年3班教室",
    "address": "石牌路1段139號",
    "village": "榮光里7-12",
    "indigenous_village": "",
    "phone": "28224682轉253",
    "seq": 15,
    "county": "TPE",
    "town": "北投區",
    "location": {
      "lat": 25.114982,
      "lng": 121.5141732
    }
  },
  {
    "id": "tpe0016",
    "place_name": "石牌國中七年5班教室",
    "address": "石牌路1段139號",
    "village": "榮光里13-18",
    "indigenous_village": "",
    "phone": "28224682轉253",
    "seq": 16,
    "county": "TPE",
    "town": "北投區",
    "location": {
      "lat": 25.114982,
      "lng": 121.5141732
    }
  },
  {
    "id": "tpe0017",
    "place_name": "石牌國中七年7班教室",
    "address": "石牌路1段139號",
    "village": "榮光里19-24",
    "indigenous_village": "",
    "phone": "28224682轉253",
    "seq": 17,
    "county": "TPE",
    "town": "北投區",
    "location": {
      "lat": 25.114982,
      "lng": 121.5141732
    }
  },
  {
    "id": "tpe0018",
    "place_name": "明德國小校史室",
    "address": "明德路190號",
    "village": "榮華里1-5,21",
    "indigenous_village": "",
    "phone": "28229651",
    "seq": 18,
    "county": "TPE",
    "town": "北投區",
    "location": {
      "lat": 25.1121226,
      "lng": 121.5217881
    }
  },
  {
    "id": "tpe0019",
    "place_name": "臺北市立北投幼兒園",
    "address": "明德路208巷5號",
    "village": "榮華里6,8-11,20",
    "indigenous_village": "",
    "phone": "28231827",
    "seq": 19,
    "county": "TPE",
    "town": "北投區",
    "location": {
      "lat": 25.1131424,
      "lng": 121.5226242
    }
  },
  {
    "id": "tpe0020",
    "place_name": "臺北市教會第44聚會所",
    "address": "明德路174巷8號",
    "village": "榮華里7,13-15",
    "indigenous_village": "榮華里全里",
    "phone": "28265364",
    "seq": 20,
    "county": "TPE",
    "town": "北投區",
    "location": {
      "lat": 25.1109849,
      "lng": 121.5216604
    }
  },
  {
    "id": "tpe0021",
    "place_name": "臺北市私立一德幼兒園",
    "address": "明德路136巷9號",
    "village": "榮華里12,16-19",
    "indigenous_village": "",
    "phone": "28215755",
    "seq": 21,
    "county": "TPE",
    "town": "北投區",
    "location": {
      "lat": 25.1099061,
      "lng": 121.521267
    }
  },
  {
    "id": "tpe0022",
    "place_name": "明德國中819教室",
    "address": "明德路50號",
    "village": "裕民里8-13",
    "indigenous_village": "",
    "phone": "28232539轉604",
    "seq": 22,
    "county": "TPE",
    "town": "北投區",
    "location": {
      "lat": 25.1078221,
      "lng": 121.5184451
    }
  },
  {
    "id": "tpe0023",
    "place_name": "明德國中718教室",
    "address": "明德路50號",
    "village": "裕民里1-3,5,21",
    "indigenous_village": "裕民里全里",
    "phone": "28232539轉604",
    "seq": 23,
    "county": "TPE",
    "town": "北投區",
    "location": {
      "lat": 25.1078221,
      "lng": 121.5184451
    }
  },
  {
    "id": "tpe0024",
    "place_name": "明德國中701教室",
    "address": "明德路50號",
    "village": "裕民里14,15,18,22-24",
    "indigenous_village": "",
    "phone": "28232539轉604",
    "seq": 24,
    "county": "TPE",
    "town": "北投區",
    "location": {
      "lat": 25.1078221,
      "lng": 121.5184451
    }
  },
  {
    "id": "tpe0025",
    "place_name": "基督教天母感恩堂",
    "address": "明德路161號",
    "village": "裕民里4,6,7,16,17,19,20",
    "indigenous_village": "",
    "phone": "28224466",
    "seq": 25,
    "county": "TPE",
    "town": "北投區",
    "location": {
      "lat": 25.1115429,
      "lng": 121.5211629
    }
  },
  {
    "id": "tpe0026",
    "place_name": "臺北護理健康大學B112教室",
    "address": "明德路365號",
    "village": "振華里1-5,9,15",
    "indigenous_village": "",
    "phone": "28227101",
    "seq": 26,
    "county": "TPE",
    "town": "北投區",
    "location": {
      "lat": 25.1180471,
      "lng": 121.5209852
    }
  },
  {
    "id": "tpe0027",
    "place_name": "臺北護理健康大學B113教室",
    "address": "明德路365號",
    "village": "振華里1,9-11,13,15,16",
    "indigenous_village": "",
    "phone": "28227101",
    "seq": 27,
    "county": "TPE",
    "town": "北投區",
    "location": {
      "lat": 25.1180471,
      "lng": 121.5209852
    }
  },
  {
    "id": "tpe0028",
    "place_name": "臺北護理健康大學B114教室",
    "address": "明德路365號",
    "village": "振華里17-19,24,26,27",
    "indigenous_village": "",
    "phone": "28227101",
    "seq": 28,
    "county": "TPE",
    "town": "北投區",
    "location": {
      "lat": 25.1180471,
      "lng": 121.5209852
    }
  },
  {
    "id": "tpe0029",
    "place_name": "基督教振恩堂",
    "address": "榮華三路47號",
    "village": "振華里12,14,20-23,25",
    "indigenous_village": "振華里全里",
    "phone": "28220386",
    "seq": 29,
    "county": "TPE",
    "town": "北投區",
    "location": {
      "lat": 25.1140575,
      "lng": 121.5203398
    }
  },
  {
    "id": "tpe0030",
    "place_name": "道爾敦教育機構",
    "address": "石牌路2段361號",
    "village": "永和里1-5",
    "indigenous_village": "",
    "phone": "28771577",
    "seq": 30,
    "county": "TPE",
    "town": "北投區",
    "location": {
      "lat": 25.123755,
      "lng": 121.5252191
    }
  },
  {
    "id": "tpe0031",
    "place_name": "櫻花崗華廈地下室〈車庫旁〉",
    "address": "行義路128-1號地下樓",
    "village": "永和里6-9",
    "indigenous_village": "",
    "phone": "28752042",
    "seq": 31,
    "county": "TPE",
    "town": "北投區",
    "location": {
      "lat": 25.128898,
      "lng": 121.528534
    }
  },
  {
    "id": "tpe0032",
    "place_name": "私人住宅〈車庫〉",
    "address": "行義路148號",
    "village": "永和里10,11,14,17-19,24",
    "indigenous_village": "永和里全里",
    "phone": "28747126",
    "seq": 32,
    "county": "TPE",
    "town": "北投區",
    "location": {
      "lat": 25.1288964,
      "lng": 121.5282304
    }
  },
  {
    "id": "tpe0033",
    "place_name": "日光綠野華廈停車場",
    "address": "行義路154巷7號〈地下室〉",
    "village": "永和里12,13,15,16",
    "indigenous_village": "",
    "phone": "28724160",
    "seq": 33,
    "county": "TPE",
    "town": "北投區",
    "location": {
      "lat": 25.1305958,
      "lng": 121.5280515
    }
  },
  {
    "id": "tpe0034",
    "place_name": "甲桂林山莊聯誼社",
    "address": "中山北路7段219巷3弄125之1號旁",
    "village": "永和里20-23",
    "indigenous_village": "",
    "phone": "28713954",
    "seq": 34,
    "county": "TPE",
    "town": "北投區",
    "location": {
      "lat": 25.1296233,
      "lng": 121.5309078
    }
  },
  {
    "id": "tpe0035",
    "place_name": "榮民總醫院介壽堂",
    "address": "石牌路2段201號",
    "village": "永欣里1-7",
    "indigenous_village": "",
    "phone": "28757433",
    "seq": 35,
    "county": "TPE",
    "town": "北投區",
    "location": {
      "lat": 25.1211031,
      "lng": 121.519827
    }
  },
  {
    "id": "tpe0036",
    "place_name": "優格幼兒園",
    "address": "石牌路2段315巷10弄10號",
    "village": "永欣里13-17",
    "indigenous_village": "永欣里全里",
    "phone": "28710871",
    "seq": 36,
    "county": "TPE",
    "town": "北投區",
    "location": {
      "lat": 25.1228939,
      "lng": 121.5231871
    }
  },
  {
    "id": "tpe0037",
    "place_name": "華民幼兒園",
    "address": "石牌路2段358號",
    "village": "永欣里8-12,18",
    "indigenous_village": "",
    "phone": "28732423",
    "seq": 37,
    "county": "TPE",
    "town": "北投區",
    "location": {
      "lat": 25.1233461,
      "lng": 121.5252855
    }
  },
  {
    "id": "tpe0038",
    "place_name": "丹佛幼兒園",
    "address": "石牌路2段358-1號",
    "village": "永欣里19-23",
    "indigenous_village": "",
    "phone": "28721955",
    "seq": 38,
    "county": "TPE",
    "town": "北投區",
    "location": {
      "lat": 25.1233461,
      "lng": 121.5252855
    }
  },
  {
    "id": "tpe0039",
    "place_name": "陽明天母大廈交誼廳",
    "address": "立農街2段202巷6號後側",
    "village": "永明里8,10-12",
    "indigenous_village": "",
    "phone": "28208700",
    "seq": 39,
    "county": "TPE",
    "town": "北投區",
    "location": {
      "lat": 25.1194599,
      "lng": 121.5125605
    }
  },
  {
    "id": "tpe0040",
    "place_name": "永福祠",
    "address": "石牌路2段97巷1號",
    "village": "永明里3-6,9",
    "indigenous_village": "",
    "phone": "0939119326",
    "seq": 40,
    "county": "TPE",
    "town": "北投區",
    "location": {
      "lat": 25.1176098,
      "lng": 121.5162094
    }
  },
  {
    "id": "tpe0041",
    "place_name": "正大幼兒園",
    "address": "義理街49巷2號",
    "village": "永明里1,2,7",
    "indigenous_village": "永明里全里",
    "phone": "28229788",
    "seq": 41,
    "county": "TPE",
    "town": "北投區",
    "location": {
      "lat": 25.1169782,
      "lng": 121.5155512
    }
  },
  {
    "id": "tpe0042",
    "place_name": "新工處五分隊停車場〈右側〉",
    "address": "致遠三路158號",
    "village": "東華里1-6",
    "indigenous_village": "",
    "phone": "28226177",
    "seq": 42,
    "county": "TPE",
    "town": "北投區",
    "location": {
      "lat": 25.1217591,
      "lng": 121.5102872
    }
  },
  {
    "id": "tpe0043",
    "place_name": "新工處五分隊停車場〈左側〉",
    "address": "致遠三路158號",
    "village": "東華里7-12",
    "indigenous_village": "",
    "phone": "28226177",
    "seq": 43,
    "county": "TPE",
    "town": "北投區",
    "location": {
      "lat": 25.1217591,
      "lng": 121.5102872
    }
  },
  {
    "id": "tpe0044",
    "place_name": "陽明大學平衡運動訓練中心",
    "address": "立農街2段143號",
    "village": "東華里13-18",
    "indigenous_village": "東華里全里",
    "phone": "28267000轉2219",
    "seq": 44,
    "county": "TPE",
    "town": "北投區",
    "location": {
      "lat": 25.119,
      "lng": 121.5132436
    }
  },
  {
    "id": "tpe0045",
    "place_name": "石牌國小二年一班教室",
    "address": "致遠二路80號",
    "village": "吉利里1-5",
    "indigenous_village": "",
    "phone": "28227484",
    "seq": 45,
    "county": "TPE",
    "town": "北投區",
    "location": {
      "lat": 25.1156878,
      "lng": 121.5117046
    }
  },
  {
    "id": "tpe0046",
    "place_name": "石牌國小二年二班教室",
    "address": "致遠二路80號",
    "village": "吉利里6-11,17",
    "indigenous_village": "",
    "phone": "28227484",
    "seq": 46,
    "county": "TPE",
    "town": "北投區",
    "location": {
      "lat": 25.1156878,
      "lng": 121.5117046
    }
  },
  {
    "id": "tpe0047",
    "place_name": "石牌國小一年七班教室",
    "address": "致遠二路80號",
    "village": "吉利里12-16,19",
    "indigenous_village": "吉利里全里",
    "phone": "28227484",
    "seq": 47,
    "county": "TPE",
    "town": "北投區",
    "location": {
      "lat": 25.1156878,
      "lng": 121.5117046
    }
  },
  {
    "id": "tpe0048",
    "place_name": "石牌國小一年八班教室",
    "address": "致遠二路80號",
    "village": "吉利里18,20-23",
    "indigenous_village": "",
    "phone": "28227484",
    "seq": 48,
    "county": "TPE",
    "town": "北投區",
    "location": {
      "lat": 25.1156878,
      "lng": 121.5117046
    }
  },
  {
    "id": "tpe0049",
    "place_name": "石牌國小三年一班教室",
    "address": "致遠二路80號",
    "village": "吉慶里1-6",
    "indigenous_village": "",
    "phone": "28227484",
    "seq": 49,
    "county": "TPE",
    "town": "北投區",
    "location": {
      "lat": 25.1156878,
      "lng": 121.5117046
    }
  },
  {
    "id": "tpe0050",
    "place_name": "石牌國小一年二班教室",
    "address": "致遠二路80號",
    "village": "吉慶里7-11,13",
    "indigenous_village": "",
    "phone": "28227484",
    "seq": 50,
    "county": "TPE",
    "town": "北投區",
    "location": {
      "lat": 25.1156878,
      "lng": 121.5117046
    }
  },
  {
    "id": "tpe0051",
    "place_name": "石牌國小一年三班教室",
    "address": "致遠二路80號",
    "village": "吉慶里12,14-18",
    "indigenous_village": "吉慶里全里",
    "phone": "28227484",
    "seq": 51,
    "county": "TPE",
    "town": "北投區",
    "location": {
      "lat": 25.1156878,
      "lng": 121.5117046
    }
  },
  {
    "id": "tpe0052",
    "place_name": "石牌國小一年四班教室",
    "address": "致遠二路80號",
    "village": "尊賢里1-6",
    "indigenous_village": "",
    "phone": "28227484",
    "seq": 52,
    "county": "TPE",
    "town": "北投區",
    "location": {
      "lat": 25.1156878,
      "lng": 121.5117046
    }
  },
  {
    "id": "tpe0053",
    "place_name": "石牌國小一年五班教室",
    "address": "致遠二路80號",
    "village": "尊賢里7-12",
    "indigenous_village": "",
    "phone": "28227484",
    "seq": 53,
    "county": "TPE",
    "town": "北投區",
    "location": {
      "lat": 25.1156878,
      "lng": 121.5117046
    }
  },
  {
    "id": "tpe0054",
    "place_name": "石牌國小一年六班教室",
    "address": "致遠二路80號",
    "village": "尊賢里13-20",
    "indigenous_village": "尊賢里全里",
    "phone": "28227484",
    "seq": 54,
    "county": "TPE",
    "town": "北投區",
    "location": {
      "lat": 25.1156878,
      "lng": 121.5117046
    }
  },
  {
    "id": "tpe0055",
    "place_name": "台北慈惠堂",
    "address": "吉利街27號",
    "village": "立賢里1-3,6,7",
    "indigenous_village": "",
    "phone": "28218524",
    "seq": 55,
    "county": "TPE",
    "town": "北投區",
    "location": {
      "lat": 25.1181848,
      "lng": 121.5049648
    }
  },
  {
    "id": "tpe0056",
    "place_name": "立農國小一年3教室",
    "address": "立農街1段250號",
    "village": "立賢里8-12",
    "indigenous_village": "立賢里全里",
    "phone": "28212604",
    "seq": 56,
    "county": "TPE",
    "town": "北投區",
    "location": {
      "lat": 25.1194919,
      "lng": 121.5052073
    }
  },
  {
    "id": "tpe0057",
    "place_name": "立農國小一年4教室",
    "address": "立農街1段250號",
    "village": "立賢里4,5,13-16",
    "indigenous_village": "",
    "phone": "28212604",
    "seq": 57,
    "county": "TPE",
    "town": "北投區",
    "location": {
      "lat": 25.1194919,
      "lng": 121.5052073
    }
  },
  {
    "id": "tpe0058",
    "place_name": "慈生宮餐廳",
    "address": "立農街1段321號",
    "village": "立農里1-5",
    "indigenous_village": "",
    "phone": "28227410",
    "seq": 58,
    "county": "TPE",
    "town": "北投區",
    "location": {
      "lat": 25.1196844,
      "lng": 121.5070204
    }
  },
  {
    "id": "tpe0059",
    "place_name": "立農里里民活動場所",
    "address": "吉利街123巷30號",
    "village": "立農里6,7,9,10",
    "indigenous_village": "",
    "phone": "28262408",
    "seq": 59,
    "county": "TPE",
    "town": "北投區",
    "location": {
      "lat": 25.1192746,
      "lng": 121.5061632
    }
  },
  {
    "id": "tpe0060",
    "place_name": "立農國小一年1班教室",
    "address": "立農街1段250號",
    "village": "立農里8,11-14",
    "indigenous_village": "",
    "phone": "28212604",
    "seq": 60,
    "county": "TPE",
    "town": "北投區",
    "location": {
      "lat": 25.1194919,
      "lng": 121.5052073
    }
  },
  {
    "id": "tpe0061",
    "place_name": "立農國小一年2班教室",
    "address": "立農街1段250號",
    "village": "立農里15-20",
    "indigenous_village": "",
    "phone": "28212604",
    "seq": 61,
    "county": "TPE",
    "town": "北投區",
    "location": {
      "lat": 25.1194919,
      "lng": 121.5052073
    }
  },
  {
    "id": "tpe0062",
    "place_name": "立農國小潛能開發班二教室",
    "address": "立農街1段250號",
    "village": "立農里21-25",
    "indigenous_village": "立農里全里",
    "phone": "28212604",
    "seq": 62,
    "county": "TPE",
    "town": "北投區",
    "location": {
      "lat": 25.1194919,
      "lng": 121.5052073
    }
  },
  {
    "id": "tpe0063",
    "place_name": "文武廟",
    "address": "北投路1段53號左側",
    "village": "八仙里1-4,13-15",
    "indigenous_village": "",
    "phone": "28933970",
    "seq": 63,
    "county": "TPE",
    "town": "北投區",
    "location": {
      "lat": 25.125136,
      "lng": 121.500757
    }
  },
  {
    "id": "tpe0064",
    "place_name": "八仙里里民活動場所",
    "address": "中央南路2段33號之1",
    "village": "八仙里5,6,10-12",
    "indigenous_village": "",
    "phone": "28985252",
    "seq": 64,
    "county": "TPE",
    "town": "北投區",
    "location": {
      "lat": 25.1249762,
      "lng": 121.5004738
    }
  },
  {
    "id": "tpe0065",
    "place_name": "立農國小多功能教室B",
    "address": "立農街1段250號",
    "village": "八仙里7-9,16,17",
    "indigenous_village": "八仙里全里",
    "phone": "28212604",
    "seq": 65,
    "county": "TPE",
    "town": "北投區",
    "location": {
      "lat": 25.1194919,
      "lng": 121.5052073
    }
  },
  {
    "id": "tpe0066",
    "place_name": "屈原宮",
    "address": "洲美街122號",
    "village": "洲美里1-10",
    "indigenous_village": "洲美里全里",
    "phone": "28360256",
    "seq": 66,
    "county": "TPE",
    "town": "北投區",
    "location": {
      "lat": 25.099664,
      "lng": 121.505556
    }
  },
  {
    "id": "tpe0067",
    "place_name": "清江國小一年一班教室",
    "address": "公館路220號",
    "village": "奇岩里1-4,28",
    "indigenous_village": "奇岩里全里",
    "phone": "28912764",
    "seq": 67,
    "county": "TPE",
    "town": "北投區",
    "location": {
      "lat": 25.1269568,
      "lng": 121.5076634
    }
  },
  {
    "id": "tpe0068",
    "place_name": "清江國小一年二班教室",
    "address": "公館路220號",
    "village": "奇岩里5-10",
    "indigenous_village": "",
    "phone": "28912764",
    "seq": 68,
    "county": "TPE",
    "town": "北投區",
    "location": {
      "lat": 25.1269568,
      "lng": 121.5076634
    }
  },
  {
    "id": "tpe0069",
    "place_name": "清江國小一年三班教室",
    "address": "公館路220號",
    "village": "奇岩里11-15,25",
    "indigenous_village": "",
    "phone": "28912764",
    "seq": 69,
    "county": "TPE",
    "town": "北投區",
    "location": {
      "lat": 25.1269568,
      "lng": 121.5076634
    }
  },
  {
    "id": "tpe0070",
    "place_name": "清江國小資源班〈二〉教室",
    "address": "公館路220號",
    "village": "奇岩里17-20,26",
    "indigenous_village": "",
    "phone": "28912764",
    "seq": 70,
    "county": "TPE",
    "town": "北投區",
    "location": {
      "lat": 25.1269568,
      "lng": 121.5076634
    }
  },
  {
    "id": "tpe0071",
    "place_name": "清江國小圖書室",
    "address": "公館路220號",
    "village": "奇岩里16,21-24,27",
    "indigenous_village": "",
    "phone": "28912764",
    "seq": 71,
    "county": "TPE",
    "town": "北投區",
    "location": {
      "lat": 25.1269568,
      "lng": 121.5076634
    }
  },
  {
    "id": "tpe0072",
    "place_name": "北投區行政中心1樓南側門",
    "address": "新市街30號1樓",
    "village": "清江里1-3",
    "indigenous_village": "清江里全里",
    "phone": "28912105",
    "seq": 72,
    "county": "TPE",
    "town": "北投區",
    "location": {
      "lat": 25.1324311,
      "lng": 121.503017
    }
  },
  {
    "id": "tpe0073",
    "place_name": "慈后宮",
    "address": "清江路169號",
    "village": "清江里4-9",
    "indigenous_village": "",
    "phone": "28915323",
    "seq": 73,
    "county": "TPE",
    "town": "北投區",
    "location": {
      "lat": 25.1282374,
      "lng": 121.5019863
    }
  },
  {
    "id": "tpe0074",
    "place_name": "清江區民活動中心",
    "address": "清江路177巷12號",
    "village": "清江里15,19,22,23,25,26",
    "indigenous_village": "",
    "phone": "28912105轉216",
    "seq": 74,
    "county": "TPE",
    "town": "北投區",
    "location": {
      "lat": 25.1315373,
      "lng": 121.5015488
    }
  },
  {
    "id": "tpe0075",
    "place_name": "北投行道會福音中心",
    "address": "清江路186號",
    "village": "清江里10-13,16-18",
    "indigenous_village": "",
    "phone": "28916609",
    "seq": 75,
    "county": "TPE",
    "town": "北投區",
    "location": {
      "lat": 25.1280482,
      "lng": 121.5018132
    }
  },
  {
    "id": "tpe0076",
    "place_name": "基督教北投行道會",
    "address": "崇仁路1段17巷1號",
    "village": "清江里14,20,21,24,27",
    "indigenous_village": "",
    "phone": "28916609",
    "seq": 76,
    "county": "TPE",
    "town": "北投區",
    "location": {
      "lat": 25.1279187,
      "lng": 121.5015086
    }
  },
  {
    "id": "tpe0077",
    "place_name": "北投國小知動教室",
    "address": "中央北路1段73號",
    "village": "中央里1-7,9",
    "indigenous_village": "",
    "phone": "28914315",
    "seq": 77,
    "county": "TPE",
    "town": "北投區",
    "location": {
      "lat": 25.1341421,
      "lng": 121.5002163
    }
  },
  {
    "id": "tpe0078",
    "place_name": "北投國小二年四班教室",
    "address": "中央北路1段73號",
    "village": "中央里8,10-12",
    "indigenous_village": "",
    "phone": "28914315",
    "seq": 78,
    "county": "TPE",
    "town": "北投區",
    "location": {
      "lat": 25.1341421,
      "lng": 121.5002163
    }
  },
  {
    "id": "tpe0079",
    "place_name": "北投國小二年五班教室",
    "address": "中央北路1段73號",
    "village": "中央里13-17",
    "indigenous_village": "",
    "phone": "28914315",
    "seq": 79,
    "county": "TPE",
    "town": "北投區",
    "location": {
      "lat": 25.1341421,
      "lng": 121.5002163
    }
  },
  {
    "id": "tpe0080",
    "place_name": "北投國小二年六班教室",
    "address": "中央北路1段73號",
    "village": "中央里18-22",
    "indigenous_village": "",
    "phone": "28914315",
    "seq": 80,
    "county": "TPE",
    "town": "北投區",
    "location": {
      "lat": 25.1341421,
      "lng": 121.5002163
    }
  },
  {
    "id": "tpe0081",
    "place_name": "北投國小二年七班教室",
    "address": "中央北路一段73號",
    "village": "中央里23-28",
    "indigenous_village": "中央里全里",
    "phone": "28914315",
    "seq": 81,
    "county": "TPE",
    "town": "北投區",
    "location": {
      "lat": 25.1341421,
      "lng": 121.5002163
    }
  },
  {
    "id": "tpe0082",
    "place_name": "北投國小二年八班教室",
    "address": "中央北路1段73號",
    "village": "長安里1-6",
    "indigenous_village": "",
    "phone": "28914315",
    "seq": 82,
    "county": "TPE",
    "town": "北投區",
    "location": {
      "lat": 25.1341421,
      "lng": 121.5002163
    }
  },
  {
    "id": "tpe0083",
    "place_name": "北投國小二年九班教室",
    "address": "中央北路1段73號",
    "village": "長安里7-14",
    "indigenous_village": "長安里全里",
    "phone": "28914315",
    "seq": 83,
    "county": "TPE",
    "town": "北投區",
    "location": {
      "lat": 25.1341421,
      "lng": 121.5002163
    }
  },
  {
    "id": "tpe0084",
    "place_name": "北投國中視聽教室",
    "address": "溫泉路62號",
    "village": "長安里15-23",
    "indigenous_village": "",
    "phone": "28912091轉208",
    "seq": 84,
    "county": "TPE",
    "town": "北投區",
    "location": {
      "lat": 25.1344493,
      "lng": 121.504201
    }
  },
  {
    "id": "tpe0085",
    "place_name": "北投國小二年一班教室",
    "address": "中央北路1段73號",
    "village": "大同里1-5,15",
    "indigenous_village": "大同里全里",
    "phone": "28914315",
    "seq": 85,
    "county": "TPE",
    "town": "北投區",
    "location": {
      "lat": 25.1341421,
      "lng": 121.5002163
    }
  },
  {
    "id": "tpe0086",
    "place_name": "北投國小二年二班教室",
    "address": "中央北路1段73號",
    "village": "大同里6-12",
    "indigenous_village": "",
    "phone": "28914315",
    "seq": 86,
    "county": "TPE",
    "town": "北投區",
    "location": {
      "lat": 25.1341421,
      "lng": 121.5002163
    }
  },
  {
    "id": "tpe0087",
    "place_name": "北投國小二年三班教室",
    "address": "中央北路1段73號",
    "village": "大同里13,14,16-18",
    "indigenous_village": "",
    "phone": "28914315",
    "seq": 87,
    "county": "TPE",
    "town": "北投區",
    "location": {
      "lat": 25.1341421,
      "lng": 121.5002163
    }
  },
  {
    "id": "tpe0088",
    "place_name": "北投國中交通安全教室",
    "address": "溫泉路62號",
    "village": "溫泉里1-5",
    "indigenous_village": "",
    "phone": "28912091轉208",
    "seq": 88,
    "county": "TPE",
    "town": "北投區",
    "location": {
      "lat": 25.1344493,
      "lng": 121.504201
    }
  },
  {
    "id": "tpe0089",
    "place_name": "北投國中資源班AB教室",
    "address": "溫泉路62號",
    "village": "溫泉里6-11",
    "indigenous_village": "",
    "phone": "28912091轉208",
    "seq": 89,
    "county": "TPE",
    "town": "北投區",
    "location": {
      "lat": 25.1344493,
      "lng": 121.504201
    }
  },
  {
    "id": "tpe0090",
    "place_name": "北投國中資源班CD教室",
    "address": "溫泉路62號",
    "village": "溫泉里12-17",
    "indigenous_village": "溫泉里全里",
    "phone": "28912091轉208",
    "seq": 90,
    "county": "TPE",
    "town": "北投區",
    "location": {
      "lat": 25.1344493,
      "lng": 121.504201
    }
  },
  {
    "id": "tpe0091",
    "place_name": "北投國中資源班EF教室",
    "address": "溫泉路62號",
    "village": "溫泉里18-23",
    "indigenous_village": "",
    "phone": "28912091轉208",
    "seq": 91,
    "county": "TPE",
    "town": "北投區",
    "location": {
      "lat": 25.1344493,
      "lng": 121.504201
    }
  },
  {
    "id": "tpe0092",
    "place_name": "新民國中學生活動中心禮堂",
    "address": "新民路10號",
    "village": "林泉里1-7",
    "indigenous_village": "林泉里全里",
    "phone": "28979001轉500、520",
    "seq": 92,
    "county": "TPE",
    "town": "北投區",
    "location": {
      "lat": 25.138102,
      "lng": 121.507636
    }
  },
  {
    "id": "tpe0093",
    "place_name": "新民國中學生活動中心會議室",
    "address": "新民路10號",
    "village": "林泉里8-17",
    "indigenous_village": "",
    "phone": "28979001轉500、520",
    "seq": 93,
    "county": "TPE",
    "town": "北投區",
    "location": {
      "lat": 25.138102,
      "lng": 121.507636
    }
  },
  {
    "id": "tpe0094",
    "place_name": "逸仙國小四年一班教室",
    "address": "新民路2號",
    "village": "中心里2-6",
    "indigenous_village": "",
    "phone": "28914537轉12",
    "seq": 94,
    "county": "TPE",
    "town": "北投區",
    "location": {
      "lat": 25.1383716,
      "lng": 121.5051631
    }
  },
  {
    "id": "tpe0095",
    "place_name": "逸仙國小英語教室〈三〉",
    "address": "新民路2號",
    "village": "中心里7-12,14",
    "indigenous_village": "中心里全里",
    "phone": "28914537轉12",
    "seq": 95,
    "county": "TPE",
    "town": "北投區",
    "location": {
      "lat": 25.1383716,
      "lng": 121.5051631
    }
  },
  {
    "id": "tpe0096",
    "place_name": "逸仙國小社會教室",
    "address": "新民路2號",
    "village": "中心里13,15-21",
    "indigenous_village": "",
    "phone": "28914537轉12",
    "seq": 96,
    "county": "TPE",
    "town": "北投區",
    "location": {
      "lat": 25.1383716,
      "lng": 121.5051631
    }
  },
  {
    "id": "tpe0097",
    "place_name": "文化國小一年五班教室",
    "address": "文化三路1號",
    "village": "中庸里1-5",
    "indigenous_village": "中庸里全里",
    "phone": "28933828轉131",
    "seq": 97,
    "county": "TPE",
    "town": "北投區",
    "location": {
      "lat": 25.1371061,
      "lng": 121.4966582
    }
  },
  {
    "id": "tpe0098",
    "place_name": "文化國小一年六班教室",
    "address": "文化三路1號",
    "village": "中庸里6-10",
    "indigenous_village": "",
    "phone": "28933828轉131",
    "seq": 98,
    "county": "TPE",
    "town": "北投區",
    "location": {
      "lat": 25.1371061,
      "lng": 121.4966582
    }
  },
  {
    "id": "tpe0099",
    "place_name": "文化國小一年七班教室",
    "address": "文化三路1號",
    "village": "中庸里11-15",
    "indigenous_village": "",
    "phone": "28933828轉131",
    "seq": 99,
    "county": "TPE",
    "town": "北投區",
    "location": {
      "lat": 25.1371061,
      "lng": 121.4966582
    }
  },
  {
    "id": "tpe0100",
    "place_name": "71園區A101教室",
    "address": "開明街71號",
    "village": "開明里3-5,7,9-12",
    "indigenous_village": "",
    "phone": "28926952",
    "seq": 100,
    "county": "TPE",
    "town": "北投區",
    "location": {
      "lat": 25.1413795,
      "lng": 121.5024468
    }
  },
  {
    "id": "tpe0101",
    "place_name": "71園區A102教室",
    "address": "開明街71號",
    "village": "開明里1,2,6,8,13,16-18",
    "indigenous_village": "開明里全里",
    "phone": "28926952",
    "seq": 101,
    "county": "TPE",
    "town": "北投區",
    "location": {
      "lat": 25.1413795,
      "lng": 121.5024468
    }
  },
  {
    "id": "tpe0102",
    "place_name": "71園區A105教室",
    "address": "開明街71號",
    "village": "開明里14,15,19-26",
    "indigenous_village": "",
    "phone": "28926952",
    "seq": 102,
    "county": "TPE",
    "town": "北投區",
    "location": {
      "lat": 25.1413795,
      "lng": 121.5024468
    }
  },
  {
    "id": "tpe0103",
    "place_name": "復興高中行政大樓一樓川堂",
    "address": "復興四路70號",
    "village": "中和里11-17",
    "indigenous_village": "",
    "phone": "28914131",
    "seq": 103,
    "county": "TPE",
    "town": "北投區",
    "location": {
      "lat": 25.1435907,
      "lng": 121.5017997
    }
  },
  {
    "id": "tpe0104",
    "place_name": "中華聖樂學院",
    "address": "復興四路24號",
    "village": "中和里1,2,7,9,10,19",
    "indigenous_village": "中和里全里",
    "phone": "28916431",
    "seq": 104,
    "county": "TPE",
    "town": "北投區",
    "location": {
      "lat": 25.142,
      "lng": 121.500107
    }
  },
  {
    "id": "tpe0105",
    "place_name": "中和里里民活動場所",
    "address": "中和街422號",
    "village": "中和里3-6,8,18",
    "indigenous_village": "",
    "phone": "28942200",
    "seq": 105,
    "county": "TPE",
    "town": "北投區",
    "location": {
      "lat": 25.1440681,
      "lng": 121.4979398
    }
  },
  {
    "id": "tpe0106",
    "place_name": "禇金治女士車庫",
    "address": "杏林三路40巷1弄15號",
    "village": "智仁里1-7",
    "indigenous_village": "",
    "phone": "28924355",
    "seq": 106,
    "county": "TPE",
    "town": "北投區",
    "location": {
      "lat": 25.141804,
      "lng": 121.497134
    }
  },
  {
    "id": "tpe0107",
    "place_name": "智仁里里民活動場所",
    "address": "杏林二路74巷3號",
    "village": "智仁里8,9,11-15",
    "indigenous_village": "智仁里全里",
    "phone": "28959722",
    "seq": 107,
    "county": "TPE",
    "town": "北投區",
    "location": {
      "lat": 25.142925,
      "lng": 121.495911
    }
  },
  {
    "id": "tpe0108",
    "place_name": "道生基督教長老教會北投中和教會",
    "address": "中和街493巷6之3號",
    "village": "智仁里10,16-21",
    "indigenous_village": "",
    "phone": "28910307",
    "seq": 108,
    "county": "TPE",
    "town": "北投區",
    "location": {
      "lat": 25.1447115,
      "lng": 121.4947574
    }
  },
  {
    "id": "tpe0109",
    "place_name": "水磨福德宮",
    "address": "中和街458巷5號",
    "village": "秀山里1-7",
    "indigenous_village": "",
    "phone": "28954657",
    "seq": 109,
    "county": "TPE",
    "town": "北投區",
    "location": {
      "lat": 25.144929,
      "lng": 121.496033
    }
  },
  {
    "id": "tpe0110",
    "place_name": "秀山里里民活動場所",
    "address": "中和街502巷2弄11號",
    "village": "秀山里8-15",
    "indigenous_village": "秀山里全里",
    "phone": "28941666",
    "seq": 110,
    "county": "TPE",
    "town": "北投區",
    "location": {
      "lat": 25.1456211,
      "lng": 121.4948349
    }
  },
  {
    "id": "tpe0111",
    "place_name": "文化國小一年一班教室",
    "address": "文化三路1號",
    "village": "文化里1-5",
    "indigenous_village": "",
    "phone": "28933828轉131",
    "seq": 111,
    "county": "TPE",
    "town": "北投區",
    "location": {
      "lat": 25.1371061,
      "lng": 121.4966582
    }
  },
  {
    "id": "tpe0112",
    "place_name": "文化國小一年三班教室",
    "address": "文化三路1號",
    "village": "文化里6-9",
    "indigenous_village": "",
    "phone": "28933828轉131",
    "seq": 112,
    "county": "TPE",
    "town": "北投區",
    "location": {
      "lat": 25.1371061,
      "lng": 121.4966582
    }
  },
  {
    "id": "tpe0113",
    "place_name": "文化國小一年四班教室",
    "address": "文化三路1號",
    "village": "文化里10-14",
    "indigenous_village": "文化里全里",
    "phone": "28933828轉131",
    "seq": 113,
    "county": "TPE",
    "town": "北投區",
    "location": {
      "lat": 25.1371061,
      "lng": 121.4966582
    }
  },
  {
    "id": "tpe0114",
    "place_name": "文化國小三年一班教室",
    "address": "文化三路1號",
    "village": "豐年里1-5",
    "indigenous_village": "",
    "phone": "28933828轉131",
    "seq": 114,
    "county": "TPE",
    "town": "北投區",
    "location": {
      "lat": 25.1371061,
      "lng": 121.4966582
    }
  },
  {
    "id": "tpe0115",
    "place_name": "文化國小一年八班教室",
    "address": "文化三路1號",
    "village": "豐年里6-10",
    "indigenous_village": "豐年里全里",
    "phone": "28933828轉131",
    "seq": 115,
    "county": "TPE",
    "town": "北投區",
    "location": {
      "lat": 25.1371061,
      "lng": 121.4966582
    }
  },
  {
    "id": "tpe0116",
    "place_name": "文化國小一年九班教室",
    "address": "文化三路1號",
    "village": "豐年里11-16",
    "indigenous_village": "",
    "phone": "28933828轉131",
    "seq": 116,
    "county": "TPE",
    "town": "北投區",
    "location": {
      "lat": 25.1371061,
      "lng": 121.4966582
    }
  },
  {
    "id": "tpe0117",
    "place_name": "桃源國小力行樓1-6教室",
    "address": "中央北路3段40巷45號",
    "village": "稻香里1-5",
    "indigenous_village": "",
    "phone": "28941208轉108",
    "seq": 117,
    "county": "TPE",
    "town": "北投區",
    "location": {
      "lat": 25.1396065,
      "lng": 121.4844813
    }
  },
  {
    "id": "tpe0118",
    "place_name": "桃源國小明德樓閱讀太空站",
    "address": "中央北路3段40巷45號",
    "village": "稻香里6-10",
    "indigenous_village": "稻香里全里",
    "phone": "28941208轉108",
    "seq": 118,
    "county": "TPE",
    "town": "北投區",
    "location": {
      "lat": 25.1396065,
      "lng": 121.4844813
    }
  },
  {
    "id": "tpe0119",
    "place_name": "桃源國小明德樓多功能教室",
    "address": "中央北路3段40巷45號",
    "village": "稻香里11-16",
    "indigenous_village": "",
    "phone": "28941208轉108",
    "seq": 119,
    "county": "TPE",
    "town": "北投區",
    "location": {
      "lat": 25.1396065,
      "lng": 121.4844813
    }
  },
  {
    "id": "tpe0120",
    "place_name": "桃源里里民活動場所",
    "address": "中央北路3段40巷7號",
    "village": "桃源里1-4",
    "indigenous_village": "",
    "phone": "28923977",
    "seq": 120,
    "county": "TPE",
    "town": "北投區",
    "location": {
      "lat": 25.1385406,
      "lng": 121.4853558
    }
  },
  {
    "id": "tpe0121",
    "place_name": "桃源國小力行樓資源教室〈一〉",
    "address": "中央北路3段40巷45號",
    "village": "桃源里5,10-13",
    "indigenous_village": "",
    "phone": "28941208轉108",
    "seq": 121,
    "county": "TPE",
    "town": "北投區",
    "location": {
      "lat": 25.1396065,
      "lng": 121.4844813
    }
  },
  {
    "id": "tpe0122",
    "place_name": "桃源國小力行樓1-3教室",
    "address": "中央北路3段40巷45號",
    "village": "桃源里6-9",
    "indigenous_village": "桃源里全里",
    "phone": "28941208轉108",
    "seq": 122,
    "county": "TPE",
    "town": "北投區",
    "location": {
      "lat": 25.1396065,
      "lng": 121.4844813
    }
  },
  {
    "id": "tpe0123",
    "place_name": "桃源國小力行樓家長會辦公室",
    "address": "中央北路3段40巷45號",
    "village": "桃源里14-17",
    "indigenous_village": "",
    "phone": "28941208轉108",
    "seq": 123,
    "county": "TPE",
    "town": "北投區",
    "location": {
      "lat": 25.1396065,
      "lng": 121.4844813
    }
  },
  {
    "id": "tpe0124",
    "place_name": "桃源國中總務處旁會議室",
    "address": "中央北路4段48號",
    "village": "一德里1-6",
    "indigenous_village": "",
    "phone": "28929633",
    "seq": 124,
    "county": "TPE",
    "town": "北投區",
    "location": {
      "lat": 25.1346473,
      "lng": 121.4772995
    }
  },
  {
    "id": "tpe0125",
    "place_name": "關渡國小一年2班教室",
    "address": "中央北路4段581號",
    "village": "一德里7-12",
    "indigenous_village": "一德里全里",
    "phone": "28912847",
    "seq": 125,
    "county": "TPE",
    "town": "北投區",
    "location": {
      "lat": 25.126886,
      "lng": 121.4668792
    }
  },
  {
    "id": "tpe0126",
    "place_name": "關渡國小一年4班教室",
    "address": "中央北路4段581號",
    "village": "一德里13-17",
    "indigenous_village": "",
    "phone": "28912847",
    "seq": 126,
    "county": "TPE",
    "town": "北投區",
    "location": {
      "lat": 25.126886,
      "lng": 121.4668792
    }
  },
  {
    "id": "tpe0127",
    "place_name": "關渡國小一年5班教室",
    "address": "中央北路4段581號",
    "village": "一德里18-23",
    "indigenous_village": "",
    "phone": "28912847",
    "seq": 127,
    "county": "TPE",
    "town": "北投區",
    "location": {
      "lat": 25.126886,
      "lng": 121.4668792
    }
  },
  {
    "id": "tpe0128",
    "place_name": "關渡區民活動中心",
    "address": "大度路3段301巷1號",
    "village": "關渡里1,2,9,24",
    "indigenous_village": "",
    "phone": "28584128",
    "seq": 128,
    "county": "TPE",
    "town": "北投區",
    "location": {
      "lat": 25.1230817,
      "lng": 121.4664051
    }
  },
  {
    "id": "tpe0129",
    "place_name": "關渡國中川堂",
    "address": "知行路212號",
    "village": "關渡里5,10-12,20,28",
    "indigenous_village": "",
    "phone": "28582527轉51",
    "seq": 129,
    "county": "TPE",
    "town": "北投區",
    "location": {
      "lat": 25.1198847,
      "lng": 121.4671448
    }
  },
  {
    "id": "tpe0130",
    "place_name": "關渡國中9年1班教室",
    "address": "知行路212號",
    "village": "關渡里6,8,19,21,23,27",
    "indigenous_village": "",
    "phone": "28582527轉51",
    "seq": 130,
    "county": "TPE",
    "town": "北投區",
    "location": {
      "lat": 25.1198847,
      "lng": 121.4671448
    }
  },
  {
    "id": "tpe0131",
    "place_name": "關渡國中9年2班教室",
    "address": "知行路212號",
    "village": "關渡里7,14,17,18,22,25",
    "indigenous_village": "",
    "phone": "28582527轉51",
    "seq": 131,
    "county": "TPE",
    "town": "北投區",
    "location": {
      "lat": 25.1198847,
      "lng": 121.4671448
    }
  },
  {
    "id": "tpe0132",
    "place_name": "關度國中9年3班教室",
    "address": "知行路212號",
    "village": "關渡里4,13,15,26",
    "indigenous_village": "關渡里全里",
    "phone": "28582527轉51",
    "seq": 132,
    "county": "TPE",
    "town": "北投區",
    "location": {
      "lat": 25.1198847,
      "lng": 121.4671448
    }
  },
  {
    "id": "tpe0133",
    "place_name": "市立浩然敬老院致和樓交誼廳",
    "address": "知行路75號",
    "village": "關渡里3,16",
    "indigenous_village": "",
    "phone": "28581081轉247",
    "seq": 133,
    "county": "TPE",
    "town": "北投區",
    "location": {
      "lat": 25.118367,
      "lng": 121.467733
    }
  },
  {
    "id": "tpe0134",
    "place_name": "義方國小川堂",
    "address": "珠海路155號",
    "village": "泉源里1,3",
    "indigenous_village": "泉源里全里",
    "phone": "28917433",
    "seq": 134,
    "county": "TPE",
    "town": "北投區",
    "location": {
      "lat": 25.1419691,
      "lng": 121.5092915
    }
  },
  {
    "id": "tpe0135",
    "place_name": "泉源里里民活動中心",
    "address": "東昇路45-5號",
    "village": "泉源里2,4-16",
    "indigenous_village": "",
    "phone": "28919539",
    "seq": 135,
    "county": "TPE",
    "town": "北投區",
    "location": {
      "lat": 25.148974,
      "lng": 121.523974
    }
  },
  {
    "id": "tpe0136",
    "place_name": "湖山國小三年甲班教室",
    "address": "湖底路11號",
    "village": "湖山里1-3,14-18",
    "indigenous_village": "湖山里全里",
    "phone": "28610259",
    "seq": 136,
    "county": "TPE",
    "town": "北投區",
    "location": {
      "lat": 25.1496532,
      "lng": 121.535435
    }
  },
  {
    "id": "tpe0137",
    "place_name": "北投區清潔隊陽明分隊",
    "address": "紗帽路141巷23號",
    "village": "湖山里4-13",
    "indigenous_village": "",
    "phone": "28617757",
    "seq": 137,
    "county": "TPE",
    "town": "北投區",
    "location": {
      "lat": 25.1437783,
      "lng": 121.5315293
    }
  },
  {
    "id": "tpe0138",
    "place_name": "大屯國小美勞陶藝教室",
    "address": "復興三路312號",
    "village": "大屯里1-10",
    "indigenous_village": "大屯里全里",
    "phone": "28914353轉13",
    "seq": 138,
    "county": "TPE",
    "town": "北投區",
    "location": {
      "lat": 25.154895,
      "lng": 121.503983
    }
  },
  {
    "id": "tpe0139",
    "place_name": "湖田國小一年忠班教室",
    "address": "竹子湖路17之2號",
    "village": "湖田里1-10",
    "indigenous_village": "湖田里全里",
    "phone": "28616963",
    "seq": 139,
    "county": "TPE",
    "town": "北投區",
    "location": {
      "lat": 25.1684294,
      "lng": 121.5387714
    }
  },
  {
    "id": "tpe0140",
    "place_name": "臺北市士林公民會館(區政文史室)",
    "address": "大東路75號",
    "village": "仁勇里1-9",
    "indigenous_village": "",
    "phone": "0972295800",
    "seq": 140,
    "county": "TPE",
    "town": "士林區",
    "location": {
      "lat": 25.090478,
      "lng": 121.5254509
    }
  },
  {
    "id": "tpe0141",
    "place_name": "臺北市士林公民會館(農產展示室)",
    "address": "大東路75號",
    "village": "仁勇里10-17",
    "indigenous_village": "仁勇里全里",
    "phone": "0972295800",
    "seq": 141,
    "county": "TPE",
    "town": "士林區",
    "location": {
      "lat": 25.090478,
      "lng": 121.5254509
    }
  },
  {
    "id": "tpe0142",
    "place_name": "慈諴宮東廂前廣場",
    "address": "大南路84號",
    "village": "義信里4、6-11",
    "indigenous_village": "義信里全里",
    "phone": "28802972",
    "seq": 142,
    "county": "TPE",
    "town": "士林區",
    "location": {
      "lat": 25.0894903,
      "lng": 121.5246627
    }
  },
  {
    "id": "tpe0143",
    "place_name": "百齡高中703教室",
    "address": "承德路4段177號",
    "village": "義信里1-3、5、12-14",
    "indigenous_village": "",
    "phone": "28831568轉301",
    "seq": 143,
    "county": "TPE",
    "town": "士林區",
    "location": {
      "lat": 25.0870504,
      "lng": 121.5229913
    }
  },
  {
    "id": "tpe0144",
    "place_name": "泰北高中松鐸樓綜一乙班教室",
    "address": "福林路240號",
    "village": "福林里1-7",
    "indigenous_village": "福林里全里",
    "phone": "28825560轉514",
    "seq": 144,
    "county": "TPE",
    "town": "士林區",
    "location": {
      "lat": 25.0973651,
      "lng": 121.5339431
    }
  },
  {
    "id": "tpe0145",
    "place_name": "福林區民活動中心(小教室)",
    "address": "中正路187巷26號",
    "village": "福林里8-12",
    "indigenous_village": "",
    "phone": "0972295802",
    "seq": 145,
    "county": "TPE",
    "town": "士林區",
    "location": {
      "lat": 25.0947156,
      "lng": 121.5273827
    }
  },
  {
    "id": "tpe0146",
    "place_name": "福林區民活動中心(大教室)",
    "address": "中正路187巷26號",
    "village": "福林里13-18",
    "indigenous_village": "",
    "phone": "0972295802",
    "seq": 146,
    "county": "TPE",
    "town": "士林區",
    "location": {
      "lat": 25.0947156,
      "lng": 121.5273827
    }
  },
  {
    "id": "tpe0147",
    "place_name": "士林國中七年一班教室",
    "address": "中正路345號",
    "village": "福德里1-7",
    "indigenous_village": "",
    "phone": "88613411轉520",
    "seq": 147,
    "county": "TPE",
    "town": "士林區",
    "location": {
      "lat": 25.0943655,
      "lng": 121.5225702
    }
  },
  {
    "id": "tpe0148",
    "place_name": "士林國中七年三班教室",
    "address": "中正路345號",
    "village": "福德里9-15",
    "indigenous_village": "福德里全里",
    "phone": "88613411轉520",
    "seq": 148,
    "county": "TPE",
    "town": "士林區",
    "location": {
      "lat": 25.0943655,
      "lng": 121.5225702
    }
  },
  {
    "id": "tpe0149",
    "place_name": "士林國中七年四班教室",
    "address": "中正路345號",
    "village": "福德里16-18、20",
    "indigenous_village": "",
    "phone": "88613411轉520",
    "seq": 149,
    "county": "TPE",
    "town": "士林區",
    "location": {
      "lat": 25.0943655,
      "lng": 121.5225702
    }
  },
  {
    "id": "tpe0150",
    "place_name": "士林國中七年六班教室",
    "address": "中正路345號",
    "village": "福德里8、19",
    "indigenous_village": "",
    "phone": "88613411轉520",
    "seq": 150,
    "county": "TPE",
    "town": "士林區",
    "location": {
      "lat": 25.0943655,
      "lng": 121.5225702
    }
  },
  {
    "id": "tpe0151",
    "place_name": "福林國小社團教室",
    "address": "福志路75號",
    "village": "福志里1-6",
    "indigenous_village": "福志里全里",
    "phone": "28313430",
    "seq": 151,
    "county": "TPE",
    "town": "士林區",
    "location": {
      "lat": 25.0986884,
      "lng": 121.5295965
    }
  },
  {
    "id": "tpe0152",
    "place_name": "福林國小社會教室（2）",
    "address": "福志路75號",
    "village": "福志里7-13",
    "indigenous_village": "",
    "phone": "28313430",
    "seq": 152,
    "county": "TPE",
    "town": "士林區",
    "location": {
      "lat": 25.0986884,
      "lng": 121.5295965
    }
  },
  {
    "id": "tpe0153",
    "place_name": "福林國小三年三班教室",
    "address": "福志路75號",
    "village": "福志里14-18",
    "indigenous_village": "",
    "phone": "28313430",
    "seq": 153,
    "county": "TPE",
    "town": "士林區",
    "location": {
      "lat": 25.0986884,
      "lng": 121.5295965
    }
  },
  {
    "id": "tpe0154",
    "place_name": "福林國小二年一班教室",
    "address": "福志路75號",
    "village": "福志里19-24",
    "indigenous_village": "",
    "phone": "28313430",
    "seq": 154,
    "county": "TPE",
    "town": "士林區",
    "location": {
      "lat": 25.0986884,
      "lng": 121.5295965
    }
  },
  {
    "id": "tpe0155",
    "place_name": "神農宮西廂",
    "address": "前街74號",
    "village": "舊佳里1-5",
    "indigenous_village": "",
    "phone": "28324955",
    "seq": 155,
    "county": "TPE",
    "town": "士林區",
    "location": {
      "lat": 25.0978071,
      "lng": 121.5263809
    }
  },
  {
    "id": "tpe0156",
    "place_name": "神農宮東廂",
    "address": "前街74號",
    "village": "舊佳里6-10",
    "indigenous_village": "",
    "phone": "28324955",
    "seq": 156,
    "county": "TPE",
    "town": "士林區",
    "location": {
      "lat": 25.0978071,
      "lng": 121.5263809
    }
  },
  {
    "id": "tpe0157",
    "place_name": "舊佳區民活動中心",
    "address": "中山北路5段773之1號",
    "village": "舊佳里11-15",
    "indigenous_village": "",
    "phone": "0935948090",
    "seq": 157,
    "county": "TPE",
    "town": "士林區",
    "location": {
      "lat": 25.0994658,
      "lng": 121.5266145
    }
  },
  {
    "id": "tpe0158",
    "place_name": "基督教士林浸信會",
    "address": "中山北路5段751巷9號",
    "village": "舊佳里16-22",
    "indigenous_village": "舊佳里全里",
    "phone": "28315719",
    "seq": 158,
    "county": "TPE",
    "town": "士林區",
    "location": {
      "lat": 25.0987609,
      "lng": 121.5264933
    }
  },
  {
    "id": "tpe0159",
    "place_name": "士林天主堂",
    "address": "（從文林路455號進入）",
    "village": "福佳里1-3,5-6,9,12,14-15",
    "indigenous_village": "",
    "phone": "28324270",
    "seq": 159,
    "county": "TPE",
    "town": "士林區",
    "location": {
      "lat": 25.1255884,
      "lng": 121.548418
    }
  },
  {
    "id": "tpe0160",
    "place_name": "財政部臺北國稅局士林稽徵所",
    "address": "美崙街43號",
    "village": "福佳里4,7-8,10-11,13,16-17",
    "indigenous_village": "",
    "phone": "28315171",
    "seq": 160,
    "county": "TPE",
    "town": "士林區",
    "location": {
      "lat": 25.0970697,
      "lng": 121.5226405
    }
  },
  {
    "id": "tpe0161",
    "place_name": "臺北市立天文科學教育館(從後門停車場進入)",
    "address": "基河路363號",
    "village": "福佳里19-20,26",
    "indigenous_village": "福佳里全里",
    "phone": "0972295806",
    "seq": 161,
    "county": "TPE",
    "town": "士林區",
    "location": {
      "lat": 25.0958292,
      "lng": 121.5182994
    }
  },
  {
    "id": "tpe0162",
    "place_name": "文昌區民活動中心",
    "address": "文昌路166之1號",
    "village": "福佳里18,21-25",
    "indigenous_village": "",
    "phone": "28315171",
    "seq": 162,
    "county": "TPE",
    "town": "士林區",
    "location": {
      "lat": 25.0981705,
      "lng": 121.5204937
    }
  },
  {
    "id": "tpe0163",
    "place_name": "陽明高中烹飪教室",
    "address": "中正路510號",
    "village": "後港里1-5",
    "indigenous_village": "",
    "phone": "28316675",
    "seq": 163,
    "county": "TPE",
    "town": "士林區",
    "location": {
      "lat": 25.0918395,
      "lng": 121.5171309
    }
  },
  {
    "id": "tpe0164",
    "place_name": "陽明高中綜合活動專科教室",
    "address": "中正路510號",
    "village": "後港里6-10",
    "indigenous_village": "",
    "phone": "28316675",
    "seq": 164,
    "county": "TPE",
    "town": "士林區",
    "location": {
      "lat": 25.0918395,
      "lng": 121.5171309
    }
  },
  {
    "id": "tpe0165",
    "place_name": "陽明高中會議室",
    "address": "中正路510號",
    "village": "後港里11-15",
    "indigenous_village": "",
    "phone": "28316675",
    "seq": 165,
    "county": "TPE",
    "town": "士林區",
    "location": {
      "lat": 25.0918395,
      "lng": 121.5171309
    }
  },
  {
    "id": "tpe0166",
    "place_name": "陽明高中903教室",
    "address": "中正路510號",
    "village": "後港里16-20",
    "indigenous_village": "",
    "phone": "28316675",
    "seq": 166,
    "county": "TPE",
    "town": "士林區",
    "location": {
      "lat": 25.0918395,
      "lng": 121.5171309
    }
  },
  {
    "id": "tpe0167",
    "place_name": "陽明高中高一2教室",
    "address": "中正路510號",
    "village": "後港里21-25",
    "indigenous_village": "後港里全里",
    "phone": "28316675",
    "seq": 167,
    "county": "TPE",
    "town": "士林區",
    "location": {
      "lat": 25.0918395,
      "lng": 121.5171309
    }
  },
  {
    "id": "tpe0168",
    "place_name": "百齡國小1年5班教室（請由前門進入",
    "address": "）",
    "village": "福港街205號",
    "indigenous_village": "福中里1-6",
    "phone": "28817683",
    "seq": 168,
    "county": "TPE",
    "town": "士林區",
    "location": {
      "lat": 25.1255884,
      "lng": 121.548418
    }
  },
  {
    "id": "tpe0169",
    "place_name": "百齡國小1年6班教室（請由前門進入）",
    "address": "福港街205號",
    "village": "福中里7-9、13-14",
    "indigenous_village": "福中里全里",
    "phone": "28817683",
    "seq": 169,
    "county": "TPE",
    "town": "士林區",
    "location": {
      "lat": 25.0862066,
      "lng": 121.5178502
    }
  },
  {
    "id": "tpe0170",
    "place_name": "百齡國小1年8班教室（請由前門進入）",
    "address": "福港街205號",
    "village": "福中里10-12",
    "indigenous_village": "",
    "phone": "28817683",
    "seq": 170,
    "county": "TPE",
    "town": "士林區",
    "location": {
      "lat": 25.0862066,
      "lng": 121.5178502
    }
  },
  {
    "id": "tpe0171",
    "place_name": "百齡國小1年9班教室(從前門進入)",
    "address": "福港街205號",
    "village": "福中里15-19",
    "indigenous_village": "",
    "phone": "28817683",
    "seq": 171,
    "county": "TPE",
    "town": "士林區",
    "location": {
      "lat": 25.0862066,
      "lng": 121.5178502
    }
  },
  {
    "id": "tpe0172",
    "place_name": "百齡國小1年2班教室（請由後、側門進入）",
    "address": "福港街205號",
    "village": "前港里1、3-4、9",
    "indigenous_village": "",
    "phone": "28817683",
    "seq": 172,
    "county": "TPE",
    "town": "士林區",
    "location": {
      "lat": 25.0862066,
      "lng": 121.5178502
    }
  },
  {
    "id": "tpe0173",
    "place_name": "百齡國小1年3班教室（請由後、側門進入）",
    "address": "福港街205號",
    "village": "前港里2、5-6、8",
    "indigenous_village": "前港里全里",
    "phone": "28817683",
    "seq": 173,
    "county": "TPE",
    "town": "士林區",
    "location": {
      "lat": 25.0862066,
      "lng": 121.5178502
    }
  },
  {
    "id": "tpe0174",
    "place_name": "百齡國小1年4班教室（請由後、側門進入）",
    "address": "福港街205號",
    "village": "前港里7、10-13",
    "indigenous_village": "",
    "phone": "28817683",
    "seq": 174,
    "county": "TPE",
    "town": "士林區",
    "location": {
      "lat": 25.0862066,
      "lng": 121.5178502
    }
  },
  {
    "id": "tpe0175",
    "place_name": "百齡國小二年六班教室（請由前港街側門進入",
    "address": "）",
    "village": "福港街205號",
    "indigenous_village": "百齡里1-6",
    "phone": "28817683",
    "seq": 175,
    "county": "TPE",
    "town": "士林區",
    "location": {
      "lat": 25.1255884,
      "lng": 121.548418
    }
  },
  {
    "id": "tpe0176",
    "place_name": "百齡國小二年七班教室（請由前港街側門進入",
    "address": "）",
    "village": "福港街205號",
    "indigenous_village": "百齡里7-9、12-15、17",
    "phone": "28817683",
    "seq": 176,
    "county": "TPE",
    "town": "士林區",
    "location": {
      "lat": 25.1255884,
      "lng": 121.548418
    }
  },
  {
    "id": "tpe0177",
    "place_name": "百齡國小二年八班教室（請由前港街側門進入）",
    "address": "福港街205號",
    "village": "百齡里19-23、25-26",
    "indigenous_village": "百齡里全里",
    "phone": "28817683",
    "seq": 177,
    "county": "TPE",
    "town": "士林區",
    "location": {
      "lat": 25.0862066,
      "lng": 121.5178502
    }
  },
  {
    "id": "tpe0178",
    "place_name": "百齡國小一年一班教室（請由前港街側門進入）",
    "address": "福港街205號",
    "village": "百齡里10-11、16、18、24、27",
    "indigenous_village": "",
    "phone": "28817683",
    "seq": 178,
    "county": "TPE",
    "town": "士林區",
    "location": {
      "lat": 25.0862066,
      "lng": 121.5178502
    }
  },
  {
    "id": "tpe0179",
    "place_name": "劍潭國小綜合教室",
    "address": "通河街16號",
    "village": "承德里1-7",
    "indigenous_village": "",
    "phone": "28862471",
    "seq": 179,
    "county": "TPE",
    "town": "士林區",
    "location": {
      "lat": 25.0799466,
      "lng": 121.5229841
    }
  },
  {
    "id": "tpe0180",
    "place_name": "劍潭國小1年甲班教室",
    "address": "通河街16號",
    "village": "承德里8-14",
    "indigenous_village": "",
    "phone": "28862471",
    "seq": 180,
    "county": "TPE",
    "town": "士林區",
    "location": {
      "lat": 25.0799466,
      "lng": 121.5229841
    }
  },
  {
    "id": "tpe0181",
    "place_name": "劍潭國小1年乙班教室",
    "address": "通河街16號",
    "village": "承德里15-21",
    "indigenous_village": "承德里全里",
    "phone": "28862471",
    "seq": 181,
    "county": "TPE",
    "town": "士林區",
    "location": {
      "lat": 25.0799466,
      "lng": 121.5229841
    }
  },
  {
    "id": "tpe0182",
    "place_name": "劍潭國小1年丙班教室",
    "address": "通河街16號",
    "village": "福華里1-4、6-8",
    "indigenous_village": "",
    "phone": "28862471",
    "seq": 182,
    "county": "TPE",
    "town": "士林區",
    "location": {
      "lat": 25.0799466,
      "lng": 121.5229841
    }
  },
  {
    "id": "tpe0183",
    "place_name": "劍潭國小2年甲班教室",
    "address": "通河街16號",
    "village": "福華里10-14",
    "indigenous_village": "福華里全里",
    "phone": "28862471",
    "seq": 183,
    "county": "TPE",
    "town": "士林區",
    "location": {
      "lat": 25.0799466,
      "lng": 121.5229841
    }
  },
  {
    "id": "tpe0184",
    "place_name": "士林托兒所白兔教室",
    "address": "通河街179巷2號",
    "village": "福華里5,9,15-21",
    "indigenous_village": "",
    "phone": "28853842",
    "seq": 184,
    "county": "TPE",
    "town": "士林區",
    "location": {
      "lat": 25.0818488,
      "lng": 121.5195898
    }
  },
  {
    "id": "tpe0185",
    "place_name": "士林托兒所松鼠教室",
    "address": "通河街179巷2號",
    "village": "福華里22-28",
    "indigenous_village": "",
    "phone": "28853842",
    "seq": 185,
    "county": "TPE",
    "town": "士林區",
    "location": {
      "lat": 25.0818488,
      "lng": 121.5195898
    }
  },
  {
    "id": "tpe0186",
    "place_name": "劍潭國小2年乙班教室",
    "address": "通河街16號",
    "village": "明勝里1-5",
    "indigenous_village": "",
    "phone": "28862471",
    "seq": 186,
    "county": "TPE",
    "town": "士林區",
    "location": {
      "lat": 25.0799466,
      "lng": 121.5229841
    }
  },
  {
    "id": "tpe0187",
    "place_name": "劍潭國小2年丙班教室",
    "address": "通河街16號",
    "village": "明勝里6-12",
    "indigenous_village": "明勝里全里",
    "phone": "28862471",
    "seq": 187,
    "county": "TPE",
    "town": "士林區",
    "location": {
      "lat": 25.0799466,
      "lng": 121.5229841
    }
  },
  {
    "id": "tpe0188",
    "place_name": "劍潭國小6年甲班教室",
    "address": "通河街16號",
    "village": "明勝里13-18",
    "indigenous_village": "",
    "phone": "28862471",
    "seq": 188,
    "county": "TPE",
    "town": "士林區",
    "location": {
      "lat": 25.0799466,
      "lng": 121.5229841
    }
  },
  {
    "id": "tpe0189",
    "place_name": "慈信宮",
    "address": "重慶北路4段49巷40弄56號",
    "village": "福順里1-5",
    "indigenous_village": "",
    "phone": "28121379",
    "seq": 189,
    "county": "TPE",
    "town": "士林區",
    "location": {
      "lat": 25.080014,
      "lng": 121.5117657
    }
  },
  {
    "id": "tpe0190",
    "place_name": "葫蘆幼兒園",
    "address": "延平北路5段136巷1號",
    "village": "福順里6-9,11",
    "indigenous_village": "福順里全里",
    "phone": "28151220",
    "seq": 190,
    "county": "TPE",
    "town": "士林區",
    "location": {
      "lat": 25.0822223,
      "lng": 121.5108992
    }
  },
  {
    "id": "tpe0191",
    "place_name": "臺北市立圖書館葫蘆堵分館",
    "address": "延平北路5段136巷1號1樓梯廳",
    "village": "福順里10,12-15",
    "indigenous_village": "",
    "phone": "28126513",
    "seq": 191,
    "county": "TPE",
    "town": "士林區",
    "location": {
      "lat": 25.0822223,
      "lng": 121.5108992
    }
  },
  {
    "id": "tpe0192",
    "place_name": "海光幼稚園",
    "address": "葫蘆街30巷25號",
    "village": "富光里1-6、8-9",
    "indigenous_village": "富光里全里",
    "phone": "28111994",
    "seq": 192,
    "county": "TPE",
    "town": "士林區",
    "location": {
      "lat": 25.0814429,
      "lng": 121.5098909
    }
  },
  {
    "id": "tpe0193",
    "place_name": "海光宮辦公室",
    "address": "葫蘆街87號",
    "village": "富光里7、10-17",
    "indigenous_village": "",
    "phone": "28127626",
    "seq": 193,
    "county": "TPE",
    "town": "士林區",
    "location": {
      "lat": 25.0805763,
      "lng": 121.5087561
    }
  },
  {
    "id": "tpe0194",
    "place_name": "慈音聖寶宮",
    "address": "延平北路5段163巷39號",
    "village": "富光里18-25",
    "indigenous_village": "",
    "phone": "28111557",
    "seq": 194,
    "county": "TPE",
    "town": "士林區",
    "location": {
      "lat": 25.0826244,
      "lng": 121.508689
    }
  },
  {
    "id": "tpe0195",
    "place_name": "葫蘆國小103教室",
    "address": "環河北路3段95號",
    "village": "葫蘆里8-14",
    "indigenous_village": "",
    "phone": "28129586",
    "seq": 195,
    "county": "TPE",
    "town": "士林區",
    "location": {
      "lat": 25.0837421,
      "lng": 121.5069631
    }
  },
  {
    "id": "tpe0196",
    "place_name": "葫蘆國小104教室",
    "address": "環河北路3段95號",
    "village": "葫蘆里15-19、27",
    "indigenous_village": "葫蘆里全里",
    "phone": "28129586",
    "seq": 196,
    "county": "TPE",
    "town": "士林區",
    "location": {
      "lat": 25.0837421,
      "lng": 121.5069631
    }
  },
  {
    "id": "tpe0197",
    "place_name": "葫蘆國小105教室",
    "address": "環河北路3段95號",
    "village": "葫蘆里20-26",
    "indigenous_village": "",
    "phone": "28129586",
    "seq": 197,
    "county": "TPE",
    "town": "士林區",
    "location": {
      "lat": 25.0837421,
      "lng": 121.5069631
    }
  },
  {
    "id": "tpe0198",
    "place_name": "葫蘆國小126教室",
    "address": "環河北路3段95號",
    "village": "葫蘆里1-7",
    "indigenous_village": "",
    "phone": "28129586",
    "seq": 198,
    "county": "TPE",
    "town": "士林區",
    "location": {
      "lat": 25.0837421,
      "lng": 121.5069631
    }
  },
  {
    "id": "tpe0199",
    "place_name": "陽信銀行社子分行",
    "address": "延平北路5段260號",
    "village": "葫東里2-3,6-7,12-13",
    "indigenous_village": "",
    "phone": "28121112",
    "seq": 199,
    "county": "TPE",
    "town": "士林區",
    "location": {
      "lat": 25.0849119,
      "lng": 121.5099453
    }
  },
  {
    "id": "tpe0200",
    "place_name": "葫東區民活動中心",
    "address": "中正路589號",
    "village": "葫東里1,4-5,8-11",
    "indigenous_village": "葫東里全里",
    "phone": "28826200轉6014",
    "seq": 200,
    "county": "TPE",
    "town": "士林區",
    "location": {
      "lat": 25.086613,
      "lng": 121.5099166
    }
  },
  {
    "id": "tpe0201",
    "place_name": "社子里里民活動場所",
    "address": "社中街70號",
    "village": "社子里1-3、6-7",
    "indigenous_village": "社子里全里",
    "phone": "28111133",
    "seq": 201,
    "county": "TPE",
    "town": "士林區",
    "location": {
      "lat": 25.0883877,
      "lng": 121.5106596
    }
  },
  {
    "id": "tpe0202",
    "place_name": "社子里里民活動場所對面",
    "address": "社中街53號",
    "village": "社子里12-18",
    "indigenous_village": "",
    "phone": "28111133",
    "seq": 202,
    "county": "TPE",
    "town": "士林區",
    "location": {
      "lat": 25.0885424,
      "lng": 121.5105357
    }
  },
  {
    "id": "tpe0203",
    "place_name": "社福宮活動中心南側",
    "address": "社中街210巷31號",
    "village": "社子里4-5、8-10",
    "indigenous_village": "",
    "phone": "28150700",
    "seq": 203,
    "county": "TPE",
    "town": "士林區",
    "location": {
      "lat": 25.0879265,
      "lng": 121.5098462
    }
  },
  {
    "id": "tpe0204",
    "place_name": "社福宮活動中心北側",
    "address": "社中街210巷31號",
    "village": "社子里11、19-23",
    "indigenous_village": "",
    "phone": "28150700",
    "seq": 204,
    "county": "TPE",
    "town": "士林區",
    "location": {
      "lat": 25.0879265,
      "lng": 121.5098462
    }
  },
  {
    "id": "tpe0205",
    "place_name": "永新區民活動中心",
    "address": "中正路632-1號",
    "village": "社新里1-2、5-6、16、29",
    "indigenous_village": "",
    "phone": "28826200轉6014",
    "seq": 205,
    "county": "TPE",
    "town": "士林區",
    "location": {
      "lat": 25.086754,
      "lng": 121.508376
    }
  },
  {
    "id": "tpe0206",
    "place_name": "共和宮",
    "address": "社子街117號",
    "village": "社新里11-12,17-18,21-22",
    "indigenous_village": "",
    "phone": "28124828",
    "seq": 206,
    "county": "TPE",
    "town": "士林區",
    "location": {
      "lat": 25.0882206,
      "lng": 121.5052961
    }
  },
  {
    "id": "tpe0207",
    "place_name": "社子國小一年五班教室",
    "address": "延平北路6段308號",
    "village": "社新里3-4、7-10",
    "indigenous_village": "",
    "phone": "28129059",
    "seq": 207,
    "county": "TPE",
    "town": "士林區",
    "location": {
      "lat": 25.0898123,
      "lng": 121.5029481
    }
  },
  {
    "id": "tpe0208",
    "place_name": "社子國小一年六班教室",
    "address": "延平北路6段308號",
    "village": "社新里13-15、19-20、28",
    "indigenous_village": "社新里全里",
    "phone": "28129059",
    "seq": 208,
    "county": "TPE",
    "town": "士林區",
    "location": {
      "lat": 25.0898123,
      "lng": 121.5029481
    }
  },
  {
    "id": "tpe0209",
    "place_name": "社子國小一年七班教室",
    "address": "延平北路6段308號",
    "village": "社新里23-27",
    "indigenous_village": "",
    "phone": "28129059",
    "seq": 209,
    "county": "TPE",
    "town": "士林區",
    "location": {
      "lat": 25.0898123,
      "lng": 121.5029481
    }
  },
  {
    "id": "tpe0210",
    "place_name": "慈暉幼兒園",
    "address": "永平街46巷3弄9號",
    "village": "社園里3,19-20,23-26",
    "indigenous_village": "",
    "phone": "28113589",
    "seq": 210,
    "county": "TPE",
    "town": "士林區",
    "location": {
      "lat": 25.0910551,
      "lng": 121.5058989
    }
  },
  {
    "id": "tpe0211",
    "place_name": "社子公園1樓閱覽室",
    "address": "永平街20巷37弄17號",
    "village": "社園里1-2,4-7",
    "indigenous_village": "",
    "phone": "28112371",
    "seq": 211,
    "county": "TPE",
    "town": "士林區",
    "location": {
      "lat": 25.0901528,
      "lng": 121.5058251
    }
  },
  {
    "id": "tpe0212",
    "place_name": "社子公園松柏健身隊康樂室",
    "address": "永平街20巷37弄10號對面社子公園內",
    "village": "社園里8-9,11,14-16",
    "indigenous_village": "社園里全里",
    "phone": "28117368",
    "seq": 212,
    "county": "TPE",
    "town": "士林區",
    "location": {
      "lat": 25.0905219,
      "lng": 121.5067675
    }
  },
  {
    "id": "tpe0213",
    "place_name": "陽信銀行社中分行",
    "address": "社中街220號",
    "village": "社園里10、12-13、17-18、21-22",
    "indigenous_village": "",
    "phone": "28151415",
    "seq": 213,
    "county": "TPE",
    "town": "士林區",
    "location": {
      "lat": 25.0912726,
      "lng": 121.5082995
    }
  },
  {
    "id": "tpe0214",
    "place_name": "社子國小一年一班教室",
    "address": "延平北路6段308號",
    "village": "永倫里1-6",
    "indigenous_village": "",
    "phone": "28129059",
    "seq": 214,
    "county": "TPE",
    "town": "士林區",
    "location": {
      "lat": 25.0898123,
      "lng": 121.5029481
    }
  },
  {
    "id": "tpe0215",
    "place_name": "社子國小一年二班教室",
    "address": "延平北路6段308號",
    "village": "永倫里7-11",
    "indigenous_village": "永倫里全里",
    "phone": "28129059",
    "seq": 215,
    "county": "TPE",
    "town": "士林區",
    "location": {
      "lat": 25.0898123,
      "lng": 121.5029481
    }
  },
  {
    "id": "tpe0216",
    "place_name": "社子國小一年三班教室",
    "address": "延平北路6段308號",
    "village": "永倫里12-17",
    "indigenous_village": "",
    "phone": "28129059",
    "seq": 216,
    "county": "TPE",
    "town": "士林區",
    "location": {
      "lat": 25.0898123,
      "lng": 121.5029481
    }
  },
  {
    "id": "tpe0217",
    "place_name": "社子國小一年四班教室",
    "address": "延平北路6段308號",
    "village": "永倫里18-23",
    "indigenous_village": "",
    "phone": "28129059",
    "seq": 217,
    "county": "TPE",
    "town": "士林區",
    "location": {
      "lat": 25.0898123,
      "lng": 121.5029481
    }
  },
  {
    "id": "tpe0218",
    "place_name": "福安國中九年四班",
    "address": "延平北路7段250號",
    "village": "福安里1-4",
    "indigenous_village": "",
    "phone": "28108766轉140",
    "seq": 218,
    "county": "TPE",
    "town": "士林區",
    "location": {
      "lat": 25.1028546,
      "lng": 121.4880705
    }
  },
  {
    "id": "tpe0219",
    "place_name": "福安國中社區化活動教室",
    "address": "延平北路7段250號",
    "village": "福安里5-8",
    "indigenous_village": "福安里全里",
    "phone": "28108766轉140",
    "seq": 219,
    "county": "TPE",
    "town": "士林區",
    "location": {
      "lat": 25.1028546,
      "lng": 121.4880705
    }
  },
  {
    "id": "tpe0220",
    "place_name": "福安國中家政教室",
    "address": "延平北路7段250號",
    "village": "福安里9-12",
    "indigenous_village": "",
    "phone": "28108766轉140",
    "seq": 220,
    "county": "TPE",
    "town": "士林區",
    "location": {
      "lat": 25.1028546,
      "lng": 121.4880705
    }
  },
  {
    "id": "tpe0221",
    "place_name": "富安國小112教室",
    "address": "延平北路8段135號",
    "village": "富洲里1-4,14-15",
    "indigenous_village": "富洲里全里",
    "phone": "28103192",
    "seq": 221,
    "county": "TPE",
    "town": "士林區",
    "location": {
      "lat": 25.1058687,
      "lng": 121.4824416
    }
  },
  {
    "id": "tpe0222",
    "place_name": "富安國小大禮堂",
    "address": "延平北路8段135號",
    "village": "富洲里5-8,16",
    "indigenous_village": "",
    "phone": "28103192",
    "seq": 222,
    "county": "TPE",
    "town": "士林區",
    "location": {
      "lat": 25.1058687,
      "lng": 121.4824416
    }
  },
  {
    "id": "tpe0223",
    "place_name": "中洲區民活動中心",
    "address": "延平北路9段80號",
    "village": "富洲里9-13,17",
    "indigenous_village": "",
    "phone": "0972295823",
    "seq": 223,
    "county": "TPE",
    "town": "士林區",
    "location": {
      "lat": 25.106337,
      "lng": 121.474814
    }
  },
  {
    "id": "tpe0224",
    "place_name": "雨聲國小大象班教室",
    "address": "至誠路1段62巷70號",
    "village": "岩山里1-8",
    "indigenous_village": "岩山里全里",
    "phone": "28311004",
    "seq": 224,
    "county": "TPE",
    "town": "士林區",
    "location": {
      "lat": 25.1026617,
      "lng": 121.5352647
    }
  },
  {
    "id": "tpe0225",
    "place_name": "雨聲國小幼兒園辦公室",
    "address": "至誠路1段62巷70號",
    "village": "岩山里9-16",
    "indigenous_village": "",
    "phone": "28311004",
    "seq": 225,
    "county": "TPE",
    "town": "士林區",
    "location": {
      "lat": 25.1026617,
      "lng": 121.5352647
    }
  },
  {
    "id": "tpe0226",
    "place_name": "芝山岩區民活動中心",
    "address": "雨聲街68號",
    "village": "名山里1、8、10-11、18、25",
    "indigenous_village": "",
    "phone": "0972295825",
    "seq": 226,
    "county": "TPE",
    "town": "士林區",
    "location": {
      "lat": 25.1024648,
      "lng": 121.5270178
    }
  },
  {
    "id": "tpe0227",
    "place_name": "雨農國小一年一班教室",
    "address": "忠義街1號",
    "village": "名山里2-7",
    "indigenous_village": "",
    "phone": "28329700轉117",
    "seq": 227,
    "county": "TPE",
    "town": "士林區",
    "location": {
      "lat": 25.1052602,
      "lng": 121.5298543
    }
  },
  {
    "id": "tpe0228",
    "place_name": "雨農國小一年二班教室",
    "address": "忠義街1號",
    "village": "名山里9、12-16",
    "indigenous_village": "",
    "phone": "28329700轉117",
    "seq": 228,
    "county": "TPE",
    "town": "士林區",
    "location": {
      "lat": 25.1052602,
      "lng": 121.5298543
    }
  },
  {
    "id": "tpe0229",
    "place_name": "雨農國小一年三班教室",
    "address": "忠義街1號",
    "village": "名山里17、19-24",
    "indigenous_village": "名山里全里",
    "phone": "28329700轉117",
    "seq": 229,
    "county": "TPE",
    "town": "士林區",
    "location": {
      "lat": 25.1052602,
      "lng": 121.5298543
    }
  },
  {
    "id": "tpe0230",
    "place_name": "泰安幼兒園",
    "address": "中山北路5段829巷14號",
    "village": "德行里1-4、6-7",
    "indigenous_village": "",
    "phone": "28314281",
    "seq": 230,
    "county": "TPE",
    "town": "士林區",
    "location": {
      "lat": 25.1017501,
      "lng": 121.525121
    }
  },
  {
    "id": "tpe0231",
    "place_name": "仰德區民活動中心前半部",
    "address": "德行西路30號",
    "village": "德行里5、8-11",
    "indigenous_village": "德行里全里",
    "phone": "28826200-6013",
    "seq": 231,
    "county": "TPE",
    "town": "士林區",
    "location": {
      "lat": 25.1046581,
      "lng": 121.5219827
    }
  },
  {
    "id": "tpe0232",
    "place_name": "仰德區民活動中心後半部",
    "address": "德行西路30號",
    "village": "德行里12-16",
    "indigenous_village": "",
    "phone": "28826200-6013",
    "seq": 232,
    "county": "TPE",
    "town": "士林區",
    "location": {
      "lat": 25.1046581,
      "lng": 121.5219827
    }
  },
  {
    "id": "tpe0233",
    "place_name": "文昌國小多功能教室左半部(桌球室)",
    "address": "文林路615巷20號",
    "village": "德華里1-6、19",
    "indigenous_village": "德華里全里",
    "phone": "28365411",
    "seq": 233,
    "county": "TPE",
    "town": "士林區",
    "location": {
      "lat": 25.0994098,
      "lng": 121.5212957
    }
  },
  {
    "id": "tpe0234",
    "place_name": "文昌國小多功能教室右半部",
    "address": "文林路615巷20號",
    "village": "德華里7-12",
    "indigenous_village": "",
    "phone": "28365411",
    "seq": 234,
    "county": "TPE",
    "town": "士林區",
    "location": {
      "lat": 25.0994098,
      "lng": 121.5212957
    }
  },
  {
    "id": "tpe0235",
    "place_name": "德華區民活動中心",
    "address": "文昌路211-1號",
    "village": "德華里13-18",
    "indigenous_village": "",
    "phone": "0972295827",
    "seq": 235,
    "county": "TPE",
    "town": "士林區",
    "location": {
      "lat": 25.0999691,
      "lng": 121.5199966
    }
  },
  {
    "id": "tpe0236",
    "place_name": "雨農國小一年四班教室",
    "address": "忠義街1號",
    "village": "聖山里1-8",
    "indigenous_village": "聖山里全里",
    "phone": "28329700轉117",
    "seq": 236,
    "county": "TPE",
    "town": "士林區",
    "location": {
      "lat": 25.1052602,
      "lng": 121.5298543
    }
  },
  {
    "id": "tpe0237",
    "place_name": "雨農國小三年四班教室(二樓)",
    "address": "忠義街1號",
    "village": "聖山里9-16",
    "indigenous_village": "",
    "phone": "28329700轉117",
    "seq": 237,
    "county": "TPE",
    "town": "士林區",
    "location": {
      "lat": 25.1052602,
      "lng": 121.5298543
    }
  },
  {
    "id": "tpe0238",
    "place_name": "雨農國小三年三班教室(二樓)",
    "address": "忠義街1號",
    "village": "聖山里17-22",
    "indigenous_village": "",
    "phone": "28329700轉117",
    "seq": 238,
    "county": "TPE",
    "town": "士林區",
    "location": {
      "lat": 25.1052602,
      "lng": 121.5298543
    }
  },
  {
    "id": "tpe0239",
    "place_name": "雨農國小三年二班教室(二樓)",
    "address": "忠義街1號",
    "village": "忠誠里1-8",
    "indigenous_village": "忠誠里全里",
    "phone": "28329700轉117",
    "seq": 239,
    "county": "TPE",
    "town": "士林區",
    "location": {
      "lat": 25.1052602,
      "lng": 121.5298543
    }
  },
  {
    "id": "tpe0240",
    "place_name": "雨農國小三年一班教室(二樓)",
    "address": "忠義街1號",
    "village": "忠誠里9-17",
    "indigenous_village": "",
    "phone": "28329700轉117",
    "seq": 240,
    "county": "TPE",
    "town": "士林區",
    "location": {
      "lat": 25.1052602,
      "lng": 121.5298543
    }
  },
  {
    "id": "tpe0241",
    "place_name": "雨農國小書法教室(二樓)",
    "address": "忠義街1號",
    "village": "忠誠里18-25",
    "indigenous_village": "",
    "phone": "28329700轉117",
    "seq": 241,
    "county": "TPE",
    "town": "士林區",
    "location": {
      "lat": 25.1052602,
      "lng": 121.5298543
    }
  },
  {
    "id": "tpe0242",
    "place_name": "芝山國小鄉土資源教室",
    "address": "德行東路285號",
    "village": "芝山里1-9",
    "indigenous_village": "",
    "phone": "28316115轉240",
    "seq": 242,
    "county": "TPE",
    "town": "士林區",
    "location": {
      "lat": 25.1102489,
      "lng": 121.5364388
    }
  },
  {
    "id": "tpe0243",
    "place_name": "芝山國小二年一班教室",
    "address": "德行東路285號",
    "village": "芝山里10-16",
    "indigenous_village": "芝山里全里",
    "phone": "28316115轉240",
    "seq": 243,
    "county": "TPE",
    "town": "士林區",
    "location": {
      "lat": 25.1102489,
      "lng": 121.5364388
    }
  },
  {
    "id": "tpe0244",
    "place_name": "芝山國小二年二班教室",
    "address": "德行東路285號",
    "village": "芝山里17-24",
    "indigenous_village": "",
    "phone": "28316115轉240",
    "seq": 244,
    "county": "TPE",
    "town": "士林區",
    "location": {
      "lat": 25.1102489,
      "lng": 121.5364388
    }
  },
  {
    "id": "tpe0245",
    "place_name": "芝山國小二年三班教室",
    "address": "德行東路285號",
    "village": "芝山里25-30",
    "indigenous_village": "",
    "phone": "28316115轉240",
    "seq": 245,
    "county": "TPE",
    "town": "士林區",
    "location": {
      "lat": 25.1102489,
      "lng": 121.5364388
    }
  },
  {
    "id": "tpe0246",
    "place_name": "臺北市職能發展學院學員餐廳",
    "address": "士東路301號",
    "village": "東山里16-22",
    "indigenous_village": "",
    "phone": "28721940轉258",
    "seq": 246,
    "county": "TPE",
    "town": "士林區",
    "location": {
      "lat": 25.11374,
      "lng": 121.537773
    }
  },
  {
    "id": "tpe0247",
    "place_name": "臺北市職能發展學院育成中心",
    "address": "士東路301號",
    "village": "東山里9-15",
    "indigenous_village": "東山里全里",
    "phone": "28721940轉258",
    "seq": 247,
    "county": "TPE",
    "town": "士林區",
    "location": {
      "lat": 25.11374,
      "lng": 121.537773
    }
  },
  {
    "id": "tpe0248",
    "place_name": "臺北市職能發展學院行政大樓1樓大廳",
    "address": "士東路301號",
    "village": "東山里1-8",
    "indigenous_village": "",
    "phone": "28721940轉258",
    "seq": 248,
    "county": "TPE",
    "town": "士林區",
    "location": {
      "lat": 25.11374,
      "lng": 121.537773
    }
  },
  {
    "id": "tpe0249",
    "place_name": "蘭雅國中九年五班教室",
    "address": "三玉里忠誠路2段51號",
    "village": "三玉里1-8",
    "indigenous_village": "",
    "phone": "28329377轉500",
    "seq": 249,
    "county": "TPE",
    "town": "士林區",
    "location": {
      "lat": 25.110619,
      "lng": 121.5308927
    }
  },
  {
    "id": "tpe0250",
    "place_name": "蘭雅國中九年四班教室",
    "address": "三玉里忠誠路2段51號",
    "village": "三玉里9-14",
    "indigenous_village": "",
    "phone": "28329377轉500",
    "seq": 250,
    "county": "TPE",
    "town": "士林區",
    "location": {
      "lat": 25.110619,
      "lng": 121.5308927
    }
  },
  {
    "id": "tpe0251",
    "place_name": "蘭雅國中九年二班教室",
    "address": "三玉里忠誠路2段51號",
    "village": "三玉里15-21",
    "indigenous_village": "三玉里全里",
    "phone": "28329377轉500",
    "seq": 251,
    "county": "TPE",
    "town": "士林區",
    "location": {
      "lat": 25.110619,
      "lng": 121.5308927
    }
  },
  {
    "id": "tpe0252",
    "place_name": "士東國小一年三班教室",
    "address": "中山北路6段392號",
    "village": "蘭雅里1-5、7",
    "indigenous_village": "",
    "phone": "28710064轉241",
    "seq": 252,
    "county": "TPE",
    "town": "士林區",
    "location": {
      "lat": 25.1129301,
      "lng": 121.526828
    }
  },
  {
    "id": "tpe0253",
    "place_name": "士東國小一年四班教室",
    "address": "中山北路6段392號",
    "village": "蘭雅里8-10、14-15",
    "indigenous_village": "",
    "phone": "28710064轉241",
    "seq": 253,
    "county": "TPE",
    "town": "士林區",
    "location": {
      "lat": 25.1129301,
      "lng": 121.526828
    }
  },
  {
    "id": "tpe0254",
    "place_name": "士東國小一年五班教室",
    "address": "中山北路6段392號",
    "village": "蘭雅里16-19、25",
    "indigenous_village": "",
    "phone": "28710064轉241",
    "seq": 254,
    "county": "TPE",
    "town": "士林區",
    "location": {
      "lat": 25.1129301,
      "lng": 121.526828
    }
  },
  {
    "id": "tpe0255",
    "place_name": "蘭雅國小健康中心",
    "address": "磺溪街57號",
    "village": "蘭雅里6、11-13、20",
    "indigenous_village": "",
    "phone": "28366052轉208",
    "seq": 255,
    "county": "TPE",
    "town": "士林區",
    "location": {
      "lat": 25.1084096,
      "lng": 121.5231371
    }
  },
  {
    "id": "tpe0256",
    "place_name": "蘭雅國小蘭心雅集",
    "address": "磺溪街57號",
    "village": "蘭雅里21-24",
    "indigenous_village": "蘭雅里全里",
    "phone": "28366052轉208",
    "seq": 256,
    "county": "TPE",
    "town": "士林區",
    "location": {
      "lat": 25.1084096,
      "lng": 121.5231371
    }
  },
  {
    "id": "tpe0257",
    "place_name": "蘭雅國小一年一班教室",
    "address": "磺溪街57號",
    "village": "蘭興里1-5",
    "indigenous_village": "",
    "phone": "28366052轉208",
    "seq": 257,
    "county": "TPE",
    "town": "士林區",
    "location": {
      "lat": 25.1084096,
      "lng": 121.5231371
    }
  },
  {
    "id": "tpe0258",
    "place_name": "蘭雅國小一年三班教室",
    "address": "磺溪街57號",
    "village": "蘭興里6-10",
    "indigenous_village": "",
    "phone": "28366052轉208",
    "seq": 258,
    "county": "TPE",
    "town": "士林區",
    "location": {
      "lat": 25.1084096,
      "lng": 121.5231371
    }
  },
  {
    "id": "tpe0259",
    "place_name": "蘭雅國小二年一班教室",
    "address": "磺溪街57號",
    "village": "蘭興里11-14",
    "indigenous_village": "",
    "phone": "28366052轉208",
    "seq": 259,
    "county": "TPE",
    "town": "士林區",
    "location": {
      "lat": 25.1084096,
      "lng": 121.5231371
    }
  },
  {
    "id": "tpe0260",
    "place_name": "蘭雅國小二年三班教室",
    "address": "磺溪街57號",
    "village": "蘭興里15-19",
    "indigenous_village": "蘭興里全里",
    "phone": "28366052轉208",
    "seq": 260,
    "county": "TPE",
    "town": "士林區",
    "location": {
      "lat": 25.1084096,
      "lng": 121.5231371
    }
  },
  {
    "id": "tpe0261",
    "place_name": "臺北市立大學天母校區體育館選手休息室（一）",
    "address": "忠誠路2段101號",
    "village": "天福里1-5",
    "indigenous_village": "",
    "phone": "28718288",
    "seq": 261,
    "county": "TPE",
    "town": "士林區",
    "location": {
      "lat": 25.1162535,
      "lng": 121.5360478
    }
  },
  {
    "id": "tpe0262",
    "place_name": "臺北市立大學天母校區體育館選手休息室（二）",
    "address": "忠誠路2段101號",
    "village": "天福里6-10",
    "indigenous_village": "",
    "phone": "28718288",
    "seq": 262,
    "county": "TPE",
    "town": "士林區",
    "location": {
      "lat": 25.1162535,
      "lng": 121.5360478
    }
  },
  {
    "id": "tpe0263",
    "place_name": "臺北市立大學天母校區體育館選手休息室（三）",
    "address": "忠誠路2段101號",
    "village": "天福里11-15",
    "indigenous_village": "",
    "phone": "28718288",
    "seq": 263,
    "county": "TPE",
    "town": "士林區",
    "location": {
      "lat": 25.1162535,
      "lng": 121.5360478
    }
  },
  {
    "id": "tpe0264",
    "place_name": "臺北市立大學天母校區體育館選手休息室（四）",
    "address": "忠誠路2段101號",
    "village": "天福里16-20",
    "indigenous_village": "天福里全里",
    "phone": "28718288",
    "seq": 264,
    "county": "TPE",
    "town": "士林區",
    "location": {
      "lat": 25.1162535,
      "lng": 121.5360478
    }
  },
  {
    "id": "tpe0265",
    "place_name": "士東國小多功能教室1",
    "address": "中山北路6段392號",
    "village": "天祿里1-5",
    "indigenous_village": "",
    "phone": "28710064轉241",
    "seq": 265,
    "county": "TPE",
    "town": "士林區",
    "location": {
      "lat": 25.1129301,
      "lng": 121.526828
    }
  },
  {
    "id": "tpe0266",
    "place_name": "士東國小一年一班教室",
    "address": "中山北路6段392號",
    "village": "天祿里6-11",
    "indigenous_village": "天祿里全里",
    "phone": "28710064轉241",
    "seq": 266,
    "county": "TPE",
    "town": "士林區",
    "location": {
      "lat": 25.1129301,
      "lng": 121.526828
    }
  },
  {
    "id": "tpe0267",
    "place_name": "士東國小一年二班教室",
    "address": "中山北路6段392號",
    "village": "天祿里12-16",
    "indigenous_village": "",
    "phone": "28710064轉241",
    "seq": 267,
    "county": "TPE",
    "town": "士林區",
    "location": {
      "lat": 25.1129301,
      "lng": 121.526828
    }
  },
  {
    "id": "tpe0268",
    "place_name": "士東國小故事屋教室",
    "address": "中山北路6段392號",
    "village": "天壽里1-3、8、10",
    "indigenous_village": "天壽里全里",
    "phone": "28710064轉241",
    "seq": 268,
    "county": "TPE",
    "town": "士林區",
    "location": {
      "lat": 25.1129301,
      "lng": 121.526828
    }
  },
  {
    "id": "tpe0269",
    "place_name": "台北美國學校西校區",
    "address": "中山北路6段765號",
    "village": "天壽里4、6、9、11-12",
    "indigenous_village": "",
    "phone": "28739900轉347",
    "seq": 269,
    "county": "TPE",
    "town": "士林區",
    "location": {
      "lat": 25.116095,
      "lng": 121.528014
    }
  },
  {
    "id": "tpe0270",
    "place_name": "天母國小英語教室六",
    "address": "天玉街12號",
    "village": "天壽里5、7、13-16",
    "indigenous_village": "",
    "phone": "28723336轉9503",
    "seq": 270,
    "county": "TPE",
    "town": "士林區",
    "location": {
      "lat": 25.1197914,
      "lng": 121.5275331
    }
  },
  {
    "id": "tpe0271",
    "place_name": "天母國中八年一班教室",
    "address": "天母東路120號",
    "village": "天和里1-5",
    "indigenous_village": "天和里全里",
    "phone": "28754864轉275",
    "seq": 271,
    "county": "TPE",
    "town": "士林區",
    "location": {
      "lat": 25.118011,
      "lng": 121.5381651
    }
  },
  {
    "id": "tpe0272",
    "place_name": "天母國中八年二班教室",
    "address": "天母東路120號",
    "village": "天和里6-10",
    "indigenous_village": "",
    "phone": "28754864轉275",
    "seq": 272,
    "county": "TPE",
    "town": "士林區",
    "location": {
      "lat": 25.118011,
      "lng": 121.5381651
    }
  },
  {
    "id": "tpe0273",
    "place_name": "天母國中八年三班教室",
    "address": "天母東路120號",
    "village": "天和里11-16",
    "indigenous_village": "",
    "phone": "28754864轉275",
    "seq": 273,
    "county": "TPE",
    "town": "士林區",
    "location": {
      "lat": 25.118011,
      "lng": 121.5381651
    }
  },
  {
    "id": "tpe0274",
    "place_name": "天母國中八年四班教室",
    "address": "天母東路120號",
    "village": "天和里17-21",
    "indigenous_village": "",
    "phone": "28754864轉275",
    "seq": 274,
    "county": "TPE",
    "town": "士林區",
    "location": {
      "lat": 25.118011,
      "lng": 121.5381651
    }
  },
  {
    "id": "tpe0275",
    "place_name": "天母國小一年三班教室",
    "address": "天玉街12號",
    "village": "天山里1-5",
    "indigenous_village": "",
    "phone": "28723336轉9503",
    "seq": 275,
    "county": "TPE",
    "town": "士林區",
    "location": {
      "lat": 25.1197914,
      "lng": 121.5275331
    }
  },
  {
    "id": "tpe0276",
    "place_name": "天母國小一年四班教室",
    "address": "天玉街12號",
    "village": "天山里6-10",
    "indigenous_village": "天山里全里",
    "phone": "28723336轉9503",
    "seq": 276,
    "county": "TPE",
    "town": "士林區",
    "location": {
      "lat": 25.1197914,
      "lng": 121.5275331
    }
  },
  {
    "id": "tpe0277",
    "place_name": "天母國小一年五班教室",
    "address": "天玉街12號",
    "village": "天山里11-15",
    "indigenous_village": "",
    "phone": "28723336轉9503",
    "seq": 277,
    "county": "TPE",
    "town": "士林區",
    "location": {
      "lat": 25.1197914,
      "lng": 121.5275331
    }
  },
  {
    "id": "tpe0278",
    "place_name": "天母國小音樂教室(五)",
    "address": "天玉街12號",
    "village": "天山里16-20",
    "indigenous_village": "",
    "phone": "28723336轉9503",
    "seq": 278,
    "county": "TPE",
    "town": "士林區",
    "location": {
      "lat": 25.1197914,
      "lng": 121.5275331
    }
  },
  {
    "id": "tpe0279",
    "place_name": "天母國小廚房",
    "address": "天玉街12號",
    "village": "天玉里1-6",
    "indigenous_village": "",
    "phone": "28723336轉9503",
    "seq": 279,
    "county": "TPE",
    "town": "士林區",
    "location": {
      "lat": 25.1197914,
      "lng": 121.5275331
    }
  },
  {
    "id": "tpe0280",
    "place_name": "天母國小幼辦教室",
    "address": "天玉街12號",
    "village": "天玉里7-12",
    "indigenous_village": "天玉里全里",
    "phone": "28723336轉9503",
    "seq": 280,
    "county": "TPE",
    "town": "士林區",
    "location": {
      "lat": 25.1197914,
      "lng": 121.5275331
    }
  },
  {
    "id": "tpe0281",
    "place_name": "天母國小活動教室",
    "address": "天玉街12號",
    "village": "天玉里13-18",
    "indigenous_village": "",
    "phone": "28723336轉9503",
    "seq": 281,
    "county": "TPE",
    "town": "士林區",
    "location": {
      "lat": 25.1197914,
      "lng": 121.5275331
    }
  },
  {
    "id": "tpe0282",
    "place_name": "天母國小幼一教室",
    "address": "天玉街12號",
    "village": "天玉里19-23",
    "indigenous_village": "",
    "phone": "28723336轉9503",
    "seq": 282,
    "county": "TPE",
    "town": "士林區",
    "location": {
      "lat": 25.1197914,
      "lng": 121.5275331
    }
  },
  {
    "id": "tpe0283",
    "place_name": "天母國小一年一班教室",
    "address": "天玉街12號",
    "village": "天玉里24-29",
    "indigenous_village": "",
    "phone": "28723336轉9503",
    "seq": 283,
    "county": "TPE",
    "town": "士林區",
    "location": {
      "lat": 25.1197914,
      "lng": 121.5275331
    }
  },
  {
    "id": "tpe0284",
    "place_name": "天母天主堂活動中心",
    "address": "士林中山北路7段171號",
    "village": "天母里2、7、9-11、17",
    "indigenous_village": "",
    "phone": "28715168",
    "seq": 284,
    "county": "TPE",
    "town": "士林區",
    "location": {
      "lat": 25.1187621,
      "lng": 121.5314704
    }
  },
  {
    "id": "tpe0285",
    "place_name": "基督教天母禮拜堂",
    "address": "中山北路7段216巷1號",
    "village": "天母里4、12-13、18",
    "indigenous_village": "",
    "phone": "28711622",
    "seq": 285,
    "county": "TPE",
    "town": "士林區",
    "location": {
      "lat": 25.1258639,
      "lng": 121.533149
    }
  },
  {
    "id": "tpe0286",
    "place_name": "天母基督教會",
    "address": "天玉街63號",
    "village": "天母里6,8,15-16,19-20",
    "indigenous_village": "",
    "phone": "28714834",
    "seq": 286,
    "county": "TPE",
    "town": "士林區",
    "location": {
      "lat": 25.1220151,
      "lng": 121.5307058
    }
  },
  {
    "id": "tpe0287",
    "place_name": "道爾敦幼兒園",
    "address": "中山北路7段224巷3號",
    "village": "天母里1、3、5、14",
    "indigenous_village": "天母里全里",
    "phone": "28730225",
    "seq": 287,
    "county": "TPE",
    "town": "士林區",
    "location": {
      "lat": 25.126981,
      "lng": 121.533307
    }
  },
  {
    "id": "tpe0288",
    "place_name": "永福區民活動中心",
    "address": "仰德大道2段146號",
    "village": "永福里全里",
    "indigenous_village": "永福里全里",
    "phone": "0972295842",
    "seq": 288,
    "county": "TPE",
    "town": "士林區",
    "location": {
      "lat": 25.109777,
      "lng": 121.547819
    }
  },
  {
    "id": "tpe0289",
    "place_name": "公館里里民聚會所",
    "address": "永公路245巷19號旁",
    "village": "公館里全里",
    "indigenous_village": "公館里全里",
    "phone": "0972295843",
    "seq": 289,
    "county": "TPE",
    "town": "士林區",
    "location": {
      "lat": 25.1228563,
      "lng": 121.5583935
    }
  },
  {
    "id": "tpe0290",
    "place_name": "陽明山國小一年忠班教室",
    "address": "仰德大道3段61號",
    "village": "新安里1-6",
    "indigenous_village": "新安里全里",
    "phone": "28616366",
    "seq": 290,
    "county": "TPE",
    "town": "士林區",
    "location": {
      "lat": 25.1193324,
      "lng": 121.5528168
    }
  },
  {
    "id": "tpe0291",
    "place_name": "陽明山國小二年忠班教室",
    "address": "仰德大道3段61號",
    "village": "新安里7-10",
    "indigenous_village": "",
    "phone": "28616366",
    "seq": 291,
    "county": "TPE",
    "town": "士林區",
    "location": {
      "lat": 25.1193324,
      "lng": 121.5528168
    }
  },
  {
    "id": "tpe0292",
    "place_name": "臺北市立聯合醫院草山職能工作坊",
    "address": "建業路7號",
    "village": "陽明里1-6",
    "indigenous_village": "",
    "phone": "28622470",
    "seq": 292,
    "county": "TPE",
    "town": "士林區",
    "location": {
      "lat": 25.1354244,
      "lng": 121.5474866
    }
  },
  {
    "id": "tpe0293",
    "place_name": "陽明區民活動中心",
    "address": "菁山路34巷1號",
    "village": "陽明里7-15",
    "indigenous_village": "",
    "phone": "28618717",
    "seq": 293,
    "county": "TPE",
    "town": "士林區",
    "location": {
      "lat": 25.1380645,
      "lng": 121.5473046
    }
  },
  {
    "id": "tpe0294",
    "place_name": "基督教臺灣信義會陽明山錫安堂",
    "address": "陽明路1段34號",
    "village": "陽明里16-23",
    "indigenous_village": "陽明里全里",
    "phone": "28612140",
    "seq": 294,
    "county": "TPE",
    "town": "士林區",
    "location": {
      "lat": 25.149465,
      "lng": 121.549723
    }
  },
  {
    "id": "tpe0295",
    "place_name": "原菁山區民活動中心(菁礐開漳聖王宮)",
    "address": "永公路520號",
    "village": "菁山里1-4",
    "indigenous_village": "菁山里全里",
    "phone": "28610678",
    "seq": 295,
    "county": "TPE",
    "town": "士林區",
    "location": {
      "lat": 25.1386118,
      "lng": 121.5670436
    }
  },
  {
    "id": "tpe0296",
    "place_name": "中華電信國際電信分公司(臺北衛星通訊心)",
    "address": "菁山路127之15號",
    "village": "菁山里5-10",
    "indigenous_village": "",
    "phone": "28620070",
    "seq": 296,
    "county": "TPE",
    "town": "士林區",
    "location": {
      "lat": 25.1449297,
      "lng": 121.5647418
    }
  },
  {
    "id": "tpe0297",
    "place_name": "平等國小四年級教室",
    "address": "平菁街101號",
    "village": "平等里全里",
    "indigenous_village": "平等里全里",
    "phone": "28610503",
    "seq": 297,
    "county": "TPE",
    "town": "士林區",
    "location": {
      "lat": 25.1291056,
      "lng": 121.5765107
    }
  },
  {
    "id": "tpe0298",
    "place_name": "溪山里里民活動場所",
    "address": "至善路3段258號旁",
    "village": "溪山里全里",
    "indigenous_village": "溪山里全里",
    "phone": "28411119",
    "seq": 298,
    "county": "TPE",
    "town": "士林區",
    "location": {
      "lat": 25.1193252,
      "lng": 121.5827007
    }
  },
  {
    "id": "tpe0299",
    "place_name": "雙溪國小6年甲班教室(請由明溪街進入)",
    "address": "中社路2段66號",
    "village": "翠山里1-7",
    "indigenous_village": "",
    "phone": "28411038",
    "seq": 299,
    "county": "TPE",
    "town": "士林區",
    "location": {
      "lat": 25.1060693,
      "lng": 121.5638863
    }
  },
  {
    "id": "tpe0300",
    "place_name": "雙溪中央社區發展協會",
    "address": "中社路1段36巷2-1號",
    "village": "翠山里8-12",
    "indigenous_village": "翠山里全里",
    "phone": "28412197",
    "seq": 300,
    "county": "TPE",
    "town": "士林區",
    "location": {
      "lat": 25.109063,
      "lng": 121.559858
    }
  },
  {
    "id": "tpe0301",
    "place_name": "臨溪區民活動中心（衛理女中對面）",
    "address": "至善路2段286號",
    "village": "臨溪里1-7",
    "indigenous_village": "",
    "phone": "28819429",
    "seq": 301,
    "county": "TPE",
    "town": "士林區",
    "location": {
      "lat": 25.1010367,
      "lng": 121.5519982
    }
  },
  {
    "id": "tpe0302",
    "place_name": "至善國中夜自習教室",
    "address": "至善路2段360號",
    "village": "臨溪里8-12",
    "indigenous_village": "臨溪里全里",
    "phone": "28414350",
    "seq": 302,
    "county": "TPE",
    "town": "士林區",
    "location": {
      "lat": 25.1035869,
      "lng": 121.5554252
    }
  },
  {
    "id": "tpe0303",
    "place_name": "西湖國小合作社",
    "address": "環山路1段25號",
    "village": "西湖里1-8",
    "indigenous_village": "",
    "phone": "2797-1267",
    "seq": 303,
    "county": "TPE",
    "town": "內湖區",
    "location": {
      "lat": 25.0838299,
      "lng": 121.5656995
    }
  },
  {
    "id": "tpe0304",
    "place_name": "西湖國小校史室",
    "address": "環山路1段25號",
    "village": "西湖里9-16",
    "indigenous_village": "",
    "phone": "2797-1267",
    "seq": 304,
    "county": "TPE",
    "town": "內湖區",
    "location": {
      "lat": 25.0838299,
      "lng": 121.5656995
    }
  },
  {
    "id": "tpe0305",
    "place_name": "西湖國中學習輔導中心(四)",
    "address": "環山路1段27號",
    "village": "西湖里17-25",
    "indigenous_village": "",
    "phone": "2799-1817轉318",
    "seq": 305,
    "county": "TPE",
    "town": "內湖區",
    "location": {
      "lat": 25.0850272,
      "lng": 121.5656955
    }
  },
  {
    "id": "tpe0306",
    "place_name": "西湖國中8年1班",
    "address": "環山路1段27號",
    "village": "西湖里26-33",
    "indigenous_village": "西湖里全里",
    "phone": "2799-1817轉318",
    "seq": 306,
    "county": "TPE",
    "town": "內湖區",
    "location": {
      "lat": 25.0850272,
      "lng": 121.5656955
    }
  },
  {
    "id": "tpe0307",
    "place_name": "文湖國小1年1班教室",
    "address": "文湖街15號",
    "village": "西康里1-4、27",
    "indigenous_village": "",
    "phone": "2658-3515轉1071",
    "seq": 307,
    "county": "TPE",
    "town": "內湖區",
    "location": {
      "lat": 25.085771,
      "lng": 121.5601224
    }
  },
  {
    "id": "tpe0308",
    "place_name": "文湖國小1年2班教室",
    "address": "文湖街15號",
    "village": "西康里6-10、13、18",
    "indigenous_village": "",
    "phone": "2658-3515轉1071",
    "seq": 308,
    "county": "TPE",
    "town": "內湖區",
    "location": {
      "lat": 25.085771,
      "lng": 121.5601224
    }
  },
  {
    "id": "tpe0309",
    "place_name": "文湖國小2年2班教室",
    "address": "文湖街15號",
    "village": "西康里5、11-12、14",
    "indigenous_village": "",
    "phone": "2658-3515轉1071",
    "seq": 309,
    "county": "TPE",
    "town": "內湖區",
    "location": {
      "lat": 25.085771,
      "lng": 121.5601224
    }
  },
  {
    "id": "tpe0310",
    "place_name": "西湖國中慈心園",
    "address": "環山路1段27號",
    "village": "西康里15-17、19-20",
    "indigenous_village": "",
    "phone": "2799-1817轉310",
    "seq": 310,
    "county": "TPE",
    "town": "內湖區",
    "location": {
      "lat": 25.0850272,
      "lng": 121.5656955
    }
  },
  {
    "id": "tpe0311",
    "place_name": "西湖國中學習輔導中心(三)",
    "address": "環山路1段27號",
    "village": "西康里21-26",
    "indigenous_village": "西康里全里",
    "phone": "2799-1817轉310",
    "seq": 311,
    "county": "TPE",
    "town": "內湖區",
    "location": {
      "lat": 25.0850272,
      "lng": 121.5656955
    }
  },
  {
    "id": "tpe0312",
    "place_name": "德明財經科技大學第二閱覽室(1)",
    "address": "環山路1段56號",
    "village": "西安里1-9",
    "indigenous_village": "",
    "phone": "2658-5801",
    "seq": 312,
    "county": "TPE",
    "town": "內湖區",
    "location": {
      "lat": 25.0865321,
      "lng": 121.5655065
    }
  },
  {
    "id": "tpe0313",
    "place_name": "德明財經科技大學第二閱覽室(2)",
    "address": "環山路1段56號",
    "village": "西安里10-14",
    "indigenous_village": "",
    "phone": "2658-5801",
    "seq": 313,
    "county": "TPE",
    "town": "內湖區",
    "location": {
      "lat": 25.0865321,
      "lng": 121.5655065
    }
  },
  {
    "id": "tpe0314",
    "place_name": "德明財經科技大學第二閱覽室(3)",
    "address": "環山路1段56號",
    "village": "西安里15-19",
    "indigenous_village": "",
    "phone": "2658-5801",
    "seq": 314,
    "county": "TPE",
    "town": "內湖區",
    "location": {
      "lat": 25.0865321,
      "lng": 121.5655065
    }
  },
  {
    "id": "tpe0315",
    "place_name": "德明財經科技大學衛生教育室A104",
    "address": "環山路1段56號",
    "village": "西安里20-23",
    "indigenous_village": "西安里全里",
    "phone": "2658-5801",
    "seq": 315,
    "county": "TPE",
    "town": "內湖區",
    "location": {
      "lat": 25.0865321,
      "lng": 121.5655065
    }
  },
  {
    "id": "tpe0316",
    "place_name": "港墘區民活動中心",
    "address": "內湖路1段552號",
    "village": "港墘里1-4、13-14、19、22",
    "indigenous_village": "",
    "phone": "0972-295503",
    "seq": 316,
    "county": "TPE",
    "town": "內湖區",
    "location": {
      "lat": 25.0792002,
      "lng": 121.5773728
    }
  },
  {
    "id": "tpe0317",
    "place_name": "內湖高工c105教室",
    "address": "內湖路1段520號",
    "village": "港墘里5-11",
    "indigenous_village": "港墘里全里",
    "phone": "2657-4874轉122",
    "seq": 317,
    "county": "TPE",
    "town": "內湖區",
    "location": {
      "lat": 25.0796796,
      "lng": 121.5755051
    }
  },
  {
    "id": "tpe0318",
    "place_name": "內湖高工c112教室",
    "address": "內湖路1段520號",
    "village": "港墘里12、15-18、20-21",
    "indigenous_village": "",
    "phone": "2657-4874轉122",
    "seq": 318,
    "county": "TPE",
    "town": "內湖區",
    "location": {
      "lat": 25.0796796,
      "lng": 121.5755051
    }
  },
  {
    "id": "tpe0319",
    "place_name": "麗山國中8年1班教室",
    "address": "內湖路1段629巷42號",
    "village": "港都里1-4、14",
    "indigenous_village": "",
    "phone": "2799-2681轉405",
    "seq": 319,
    "county": "TPE",
    "town": "內湖區",
    "location": {
      "lat": 25.0816165,
      "lng": 121.5756876
    }
  },
  {
    "id": "tpe0320",
    "place_name": "麗山國中8年3班教室",
    "address": "內湖路1段629巷42號",
    "village": "港都里5-9",
    "indigenous_village": "",
    "phone": "2799-2681轉405",
    "seq": 320,
    "county": "TPE",
    "town": "內湖區",
    "location": {
      "lat": 25.0816165,
      "lng": 121.5756876
    }
  },
  {
    "id": "tpe0321",
    "place_name": "麗山國中8年5班教室",
    "address": "內湖路1段629巷42號",
    "village": "港都里10-13",
    "indigenous_village": "港都里全里",
    "phone": "2799-2681轉405",
    "seq": 321,
    "county": "TPE",
    "town": "內湖區",
    "location": {
      "lat": 25.0816165,
      "lng": 121.5756876
    }
  },
  {
    "id": "tpe0322",
    "place_name": "內湖國小1年2班教室",
    "address": "內湖路2段41號",
    "village": "港富里1-6",
    "indigenous_village": "",
    "phone": "2799-4249轉313",
    "seq": 322,
    "county": "TPE",
    "town": "內湖區",
    "location": {
      "lat": 25.0791258,
      "lng": 121.5802392
    }
  },
  {
    "id": "tpe0323",
    "place_name": "內湖國小1年3班教室",
    "address": "內湖路2段41號",
    "village": "港富里7-12",
    "indigenous_village": "",
    "phone": "2799-4249轉313",
    "seq": 323,
    "county": "TPE",
    "town": "內湖區",
    "location": {
      "lat": 25.0791258,
      "lng": 121.5802392
    }
  },
  {
    "id": "tpe0324",
    "place_name": "內湖國小1年5班教室",
    "address": "內湖路2段41號",
    "village": "港富里13-17",
    "indigenous_village": "",
    "phone": "2799-4249轉313",
    "seq": 324,
    "county": "TPE",
    "town": "內湖區",
    "location": {
      "lat": 25.0791258,
      "lng": 121.5802392
    }
  },
  {
    "id": "tpe0325",
    "place_name": "內湖國小1年8班教室",
    "address": "內湖路2段41號",
    "village": "港富里18-23",
    "indigenous_village": "港富里全里",
    "phone": "2799-4249轉313",
    "seq": 325,
    "county": "TPE",
    "town": "內湖區",
    "location": {
      "lat": 25.0791258,
      "lng": 121.5802392
    }
  },
  {
    "id": "tpe0326",
    "place_name": "內湖國小3年1班教室",
    "address": "內湖路2段41號",
    "village": "港富里24-30",
    "indigenous_village": "",
    "phone": "2799-4249轉313",
    "seq": 326,
    "county": "TPE",
    "town": "內湖區",
    "location": {
      "lat": 25.0791258,
      "lng": 121.5802392
    }
  },
  {
    "id": "tpe0327",
    "place_name": "港華區民活動中心",
    "address": "環山路2段68巷14號1樓",
    "village": "港華里9、17、19-22",
    "indigenous_village": "",
    "phone": "0988-179936",
    "seq": 327,
    "county": "TPE",
    "town": "內湖區",
    "location": {
      "lat": 25.0867308,
      "lng": 121.5750587
    }
  },